address,postal_code,price,dateSold,yearBuilt,lotSize,homeType,rentZestimate,taxAssessedValue,bedrooms,bathrooms,area,latitude,longitude,url,title
"5293 Amelia Dr, San Jose, CA 95118",95118,925000.0,Sold 07/10/2019,1960,6777.0,SINGLE_FAMILY,3500,151699.0,4,2.0,1095,37.245683,-121.897071,https://www.zillow.com/homedetails/5293-Amelia-Dr-San-Jose-CA-95118/19757619_zpid/,Sold
"5254 Dellwood Way, San Jose, CA 95118",95118,1060000.0,Sold 07/10/2019,1960,6699.0,SINGLE_FAMILY,3600,770315.0,3,2.0,1544,37.250653,-121.88915,https://www.zillow.com/homedetails/5254-Dellwood-Way-San-Jose-CA-95118/19757072_zpid/,Sold
"1529 Calle De Stuarda, San Jose, CA 95118",95118,1450000.0,Sold 07/10/2019,1975,6878.0,SINGLE_FAMILY,4200,362224.0,3,2.0,1614,37.26123,-121.894575,https://www.zillow.com/homedetails/1529-Calle-De-Stuarda-San-Jose-CA-95118/19699218_zpid/,Sold
"5693 Tubac Ln, San Jose, CA 95118",95118,1025000.0,Sold 07/09/2019,1955,6098.0,SINGLE_FAMILY,3490,70796.0,3,2.0,1176,37.241666,-121.886436,https://www.zillow.com/homedetails/5693-Tubac-Ln-San-Jose-CA-95118/19755502_zpid/,Sold
"3031 Jenkins Ave, San Jose, CA 95118",95118,1365555.0,Sold 07/09/2019,1971,6555.0,SINGLE_FAMILY,4395,782271.0,5,2.0,2079,37.27481,-121.88953,https://www.zillow.com/homedetails/3031-Jenkins-Ave-San-Jose-CA-95118/19696368_zpid/,Sold
"1269 Karie Ann Way, San Jose, CA 95118",95118,950000.0,Sold 07/05/2019,1967,6333.0,SINGLE_FAMILY,3500,202447.0,3,2.0,1575,37.273179,-121.884295,https://www.zillow.com/homedetails/1269-Karie-Ann-Way-San-Jose-CA-95118/19696842_zpid/,Sold
"1580 Sabina Way, San Jose, CA 95118",95118,1105000.0,Sold 07/03/2019,1961,6616.0,SINGLE_FAMILY,3428,431907.0,3,2.0,1100,37.246789,-121.900216,https://www.zillow.com/homedetails/1580-Sabina-Way-San-Jose-CA-95118/19758163_zpid/,Sold
"1582 Chambers Dr, San Jose, CA 95118",95118,1300000.0,Sold 07/03/2019,1963,6298.0,SINGLE_FAMILY,4250,545598.0,4,3.0,1984,37.266469,-121.900927,https://www.zillow.com/homedetails/1582-Chambers-Dr-San-Jose-CA-95118/19694694_zpid/,Sold
"1368 Shawn Dr UNIT 2, San Jose, CA 95118",95118,510000.0,Sold 07/02/2019,1970,435.0,CONDO,2500,240498.0,2,1.0,903,37.258692,-121.887386,https://www.zillow.com/homedetails/1368-Shawn-Dr-UNIT-2-San-Jose-CA-95118/19759546_zpid/,Sold
"5754 Croydon Ave, San Jose, CA 95118",95118,1289000.0,Sold 07/02/2019,1962,6141.0,SINGLE_FAMILY,3800,294363.0,4,2.0,1555,37.243602,-121.881056,https://www.zillow.com/homedetails/5754-Croydon-Ave-San-Jose-CA-95118/19755750_zpid/,Sold
"4791 Calle De Tosca, San Jose, CA 95118",95118,1300000.0,Sold 07/01/2019,1975,6403.0,SINGLE_FAMILY,3900,439798.0,3,2.0,1426,37.256558,-121.896635,https://www.zillow.com/homedetails/4791-Calle-De-Tosca-San-Jose-CA-95118/19699346_zpid/,Sold
"1036 Cedar Gables Dr, San Jose, CA 95118",95118,585000.0,3D Home,1985,884.0,CONDO,2600,195622.0,2,2.0,824,37.26123,-121.877226,https://www.zillow.com/homedetails/1036-Cedar-Gables-Dr-San-Jose-CA-95118/19760142_zpid/,Sold
"1368 Oslo Ln, San Jose, CA 95118",95118,1050000.0,Sold 06/28/2019,1962,5998.0,SINGLE_FAMILY,3500,589783.0,4,2.0,1282,37.23848,-121.887501,https://www.zillow.com/homedetails/1368-Oslo-Ln-San-Jose-CA-95118/19755355_zpid/,Sold
"4856 Speak Ln, San Jose, CA 95118",95118,705000.0,Sold 06/28/2019,1989,1232.0,CONDO,3300,624240.0,3,2.5,1155,37.260633,-121.87885,https://www.zillow.com/homedetails/4856-Speak-Ln-San-Jose-CA-95118/19760179_zpid/,Sold
"1587 Rebel Way, San Jose, CA 95118",95118,978000.0,Sold 06/28/2019,1966,6400.0,SINGLE_FAMILY,3600,522980.0,3,,1454,37.250247,-121.901399,https://www.zillow.com/homedetails/1587-Rebel-Way-San-Jose-CA-95118/19759267_zpid/,Sold
"1552 San Joaquin Ave, San Jose, CA 95118",95118,990000.0,Sold 06/28/2019,1954,5662.0,SINGLE_FAMILY,3500,832320.0,3,2.0,1214,37.270748,-121.899245,https://www.zillow.com/homedetails/1552-San-Joaquin-Ave-San-Jose-CA-95118/19693451_zpid/,Sold
"1550 Rose Anna Dr, San Jose, CA 95118",95118,60000.0,Sold 06/28/2019,1959,6534.0,SINGLE_FAMILY,4000,791862.0,3,2.0,1624,37.245564,-121.899051,https://www.zillow.com/homedetails/1550-Rose-Anna-Dr-San-Jose-CA-95118/19757679_zpid/,Sold
"1304 Mary Lee Way, San Jose, CA 95118",95118,1062000.0,Sold 06/27/2019,1960,6499.0,SINGLE_FAMILY,3600,863531.0,3,2.0,1425,37.271425,-121.88531,https://www.zillow.com/homedetails/1304-Mary-Lee-Way-San-Jose-CA-95118/19696939_zpid/,Sold
"4009 Laurelglen Ct, San Jose, CA 95118",95118,1057500.0,Sold 06/27/2019,1966,6041.0,SINGLE_FAMILY,3550,71011.0,3,2.0,1475,37.266221,-121.882965,https://www.zillow.com/homedetails/4009-Laurelglen-Ct-San-Jose-CA-95118/19698947_zpid/,Sold
"1517 Santa Monica Ave, San Jose, CA 95118",95118,1280000.0,Sold 06/27/2019,1954,5998.0,SINGLE_FAMILY,3500,959000.0,4,3.0,1881,37.271145,-121.896804,https://www.zillow.com/homedetails/1517-Santa-Monica-Ave-San-Jose-CA-95118/19693432_zpid/,Sold
"3185 Ensalmo Ave, San Jose, CA 95118",95118,1025000.0,Sold 06/25/2019,1953,5009.0,SINGLE_FAMILY,3430,279500.0,3,2.0,1140,37.268761,-121.904297,https://www.zillow.com/homedetails/3185-Ensalmo-Ave-San-Jose-CA-95118/19693670_zpid/,Sold
"5640 Domaine Dr, San Jose, CA 95118",95118,1820000.0,Sold 06/25/2019,1994,7418.0,SINGLE_FAMILY,5550,1385283.0,5,3.0,2565,37.238121,-121.894928,https://www.zillow.com/homedetails/5640-Domaine-Dr-San-Jose-CA-95118/19756605_zpid/,Sold
"3402 Wilcox Ave, San Jose, CA 95118",95118,1160000.0,Sold 06/25/2019,1960,10463.0,SINGLE_FAMILY,3850,313119.0,4,3.0,1789,37.267684,-121.89727,https://www.zillow.com/homedetails/3402-Wilcox-Ave-San-Jose-CA-95118/19694809_zpid/,Sold
"4462 Desin Dr, San Jose, CA 95118",95118,1450000.0,Sold 06/24/2019,1983,5995.0,SINGLE_FAMILY,4395,821068.0,4,3.0,2124,37.262465,-121.881853,https://www.zillow.com/homedetails/4462-Desin-Dr-San-Jose-CA-95118/19698728_zpid/,Sold
"4432 Desin Dr, San Jose, CA 95118",95118,1325000.0,Sold 06/07/2019,1983,6146.0,SINGLE_FAMILY,4395,1180854.0,4,3.0,2124,37.263189,-121.882131,https://www.zillow.com/homedetails/4432-Desin-Dr-San-Jose-CA-95118/19698733_zpid/,Sold
"2995 Foxstone Ct, San Jose, CA 95118",95118,2250000.0,Sold 06/06/2019,2011,7457.0,SINGLE_FAMILY,6000,1395333.0,5,4.0,3691,37.27601,-121.888428,https://www.zillow.com/homedetails/2995-Foxstone-Ct-San-Jose-CA-95118/116156104_zpid/,Sold
"1565 Trevor Dr, San Jose, CA 95118",95118,1375000.0,Sold 06/06/2019,1966,6111.0,SINGLE_FAMILY,4000,373283.0,3,2.0,1454,37.248741,-121.900848,https://www.zillow.com/homedetails/1565-Trevor-Dr-San-Jose-CA-95118/19758262_zpid/,Sold
"1313 Los Palos Way, San Jose, CA 95118",95118,18000.0,Sold 06/05/2019,1966,6077.0,SINGLE_FAMILY,4300,458454.0,5,2.5,2148,37.264853,-121.884692,https://www.zillow.com/homedetails/1313-Los-Palos-Way-San-Jose-CA-95118/19697575_zpid/,Sold
"1118 Dinkel Ct, San Jose, CA 95118",95118,840000.0,Sold 06/04/2019,1981,1568.0,TOWNHOUSE,3450,497836.0,3,3.0,1573,37.260098,-121.877156,https://www.zillow.com/homedetails/1118-Dinkel-Ct-San-Jose-CA-95118/19759998_zpid/,Sold
"1577 Silvercrest Dr, San Jose, CA 95118",95118,1175000.0,Sold 05/31/2019,1961,6150.0,SINGLE_FAMILY,3850,161455.0,4,2.0,1407,37.261567,-121.899711,https://www.zillow.com/homedetails/1577-Silvercrest-Dr-San-Jose-CA-95118/19698041_zpid/,Sold
"1469 Luning Dr, San Jose, CA 95118",95118,1280000.0,Sold 05/31/2019,1968,6176.0,SINGLE_FAMILY,4350,191760.0,4,2.0,1937,37.254336,-121.894086,https://www.zillow.com/homedetails/1469-Luning-Dr-San-Jose-CA-95118/19759115_zpid/,Sold
"5277 Larchwood Dr, San Jose, CA 95118",95118,967500.0,Sold 05/31/2019,1965,6743.0,SINGLE_FAMILY,3700,73251.0,4,2.0,1622,37.250763,-121.886775,https://www.zillow.com/homedetails/5277-Larchwood-Dr-San-Jose-CA-95118/19757145_zpid/,Sold
"5606 Doorn Ln, San Jose, CA 95118",95118,1105000.0,Sold 05/30/2019,1960,6254.0,SINGLE_FAMILY,3490,547103.0,3,1.5,1198,37.241839,-121.889838,https://www.zillow.com/homedetails/5606-Doorn-Ln-San-Jose-CA-95118/19755292_zpid/,Sold
"1507 Blossom Hill Rd, San Jose, CA 95118",95118,1195000.0,Sold 05/30/2019,1960,6651.0,SINGLE_FAMILY,3395,51519.0,4,2.0,1412,37.239897,-121.89492,https://www.zillow.com/homedetails/1507-Blossom-Hill-Rd-San-Jose-CA-95118/19754905_zpid/,Sold
"1453 Willowmont Ave, San Jose, CA 95118",95118,1050000.0,Sold 05/30/2019,1959,6298.0,SINGLE_FAMILY,3600,925955.0,3,2.0,1202,37.268998,-121.890487,https://www.zillow.com/homedetails/1453-Willowmont-Ave-San-Jose-CA-95118/19697163_zpid/,Sold
"1593 Rebel Way, San Jose, CA 95118",95118,920000.0,Sold 05/29/2019,1966,6400.0,SINGLE_FAMILY,3500,356656.0,3,2.0,1491,37.250252,-121.902094,https://www.zillow.com/homedetails/1593-Rebel-Way-San-Jose-CA-95118/19759270_zpid/,Sold
"1350 Lansing Ave, San Jose, CA 95118",95118,950000.0,Sold 05/28/2019,1964,5967.0,SINGLE_FAMILY,3600,340337.0,4,2.0,1408,37.25304,-121.885719,https://www.zillow.com/homedetails/1350-Lansing-Ave-San-Jose-CA-95118/19758719_zpid/,Sold
"1504 Woodson Ct, San Jose, CA 95118",95118,350000.0,Sold 05/28/2019,1964,6175.0,SINGLE_FAMILY,3600,674757.0,3,2.0,1346,37.264167,-121.892718,https://www.zillow.com/homedetails/1504-Woodson-Ct-San-Jose-CA-95118/19697819_zpid/,Sold
"5747 Chambertin Dr, San Jose, CA 95118",95118,1800000.0,Sold 05/24/2019,-1,-1.0,SINGLE_FAMILY,4495,574977.0,,,,37.235996,-121.892537,https://www.zillow.com/homedetails/5747-Chambertin-Dr-San-Jose-CA-95118/19756658_zpid/,Sold
"1210 Montmorency Dr, San Jose, CA 95118",95118,1375000.0,Sold 05/23/2019,1984,5959.0,SINGLE_FAMILY,3950,838853.0,4,2.0,1846,37.263753,-121.882005,https://www.zillow.com/homedetails/1210-Montmorency-Dr-San-Jose-CA-95118/19698738_zpid/,Sold
"5633 Le Fevre Dr, San Jose, CA 95118",95118,1300000.0,Sold 05/22/2019,1994,3685.0,SINGLE_FAMILY,3895,407864.0,3,2.5,1573,37.238768,-121.8948,https://www.zillow.com/homedetails/5633-Le-Fevre-Dr-San-Jose-CA-95118/19756717_zpid/,Sold
"5543 Dwight Ave, San Jose, CA 95118",95118,1100000.0,Sold 05/22/2019,1961,6500.0,SINGLE_FAMILY,3600,65536.0,4,2.0,1392,37.238319,-121.90077,https://www.zillow.com/homedetails/5543-Dwight-Ave-San-Jose-CA-95118/19754897_zpid/,Sold
"3211 Ensalmo Ave, San Jose, CA 95118",95118,899500.0,Sold 05/21/2019,1953,4978.0,SINGLE_FAMILY,3450,288895.0,3,1.0,1140,37.268484,-121.904184,https://www.zillow.com/homedetails/3211-Ensalmo-Ave-San-Jose-CA-95118/19693672_zpid/,Sold
"1519 Estelle Ave, San Jose, CA 95118",95118,1340000.0,Sold 05/20/2019,1960,7339.0,SINGLE_FAMILY,4000,290475.0,4,3.0,1820,37.268399,-121.895572,https://www.zillow.com/homedetails/1519-Estelle-Ave-San-Jose-CA-95118/19694897_zpid/,Sold
"3950 Jarvis Ave, San Jose, CA 95118",95118,100000.0,Sold 05/20/2019,1964,6634.0,SINGLE_FAMILY,3540,76900.0,3,2.0,1346,37.264451,-121.892067,https://www.zillow.com/homedetails/3950-Jarvis-Ave-San-Jose-CA-95118/19697741_zpid/,Sold
"5199 Dent Ave, San Jose, CA 95118",95118,1100000.0,Sold 05/17/2019,1961,6063.0,SINGLE_FAMILY,3391,355138.0,3,2.0,1100,37.249321,-121.898521,https://www.zillow.com/homedetails/5199-Dent-Ave-San-Jose-CA-95118/19758205_zpid/,Sold
"1394 Melwood Dr, San Jose, CA 95118",95118,1070000.0,Sold 05/17/2019,1960,6303.0,SINGLE_FAMILY,3550,864571.0,3,2.0,1220,37.248961,-121.889404,https://www.zillow.com/homedetails/1394-Melwood-Dr-San-Jose-CA-95118/19757302_zpid/,Sold
"1407 Annapolis Way, San Jose, CA 95118",95118,1100000.0,Sold 05/17/2019,1963,5867.0,SINGLE_FAMILY,3800,864960.0,3,2.0,1618,37.253413,-121.889014,https://www.zillow.com/homedetails/1407-Annapolis-Way-San-Jose-CA-95118/19758626_zpid/,Sold
"1171 Lynhurst Way, San Jose, CA 95118",95118,1295000.0,Sold 05/15/2019,1975,6015.0,SINGLE_FAMILY,3850,800866.0,4,2.0,1553,37.265703,-121.879909,https://www.zillow.com/homedetails/1171-Lynhurst-Way-San-Jose-CA-95118/19698890_zpid/,Sold
"4782 Jarvis Ave, San Jose, CA 95118",95118,1185000.0,Sold 05/15/2019,1966,6098.0,SINGLE_FAMILY,3900,882300.0,3,2.0,1475,37.257254,-121.889688,https://www.zillow.com/homedetails/4782-Jarvis-Ave-San-Jose-CA-95118/19758952_zpid/,Sold
"1538 Foxworthy Ave, San Jose, CA 95118",95118,1040000.0,Sold 05/14/2019,1954,6773.0,SINGLE_FAMILY,3500,482138.0,3,1.5,1214,37.272355,-121.898837,https://www.zillow.com/homedetails/1538-Foxworthy-Ave-San-Jose-CA-95118/19693561_zpid/,Sold
"1238 Willo Mar Dr, San Jose, CA 95118",95118,1025000.0,Sold 05/14/2019,1956,5819.0,SINGLE_FAMILY,3555,520043.0,4,2.0,1449,37.275991,-121.883996,https://www.zillow.com/homedetails/1238-Willo-Mar-Dr-San-Jose-CA-95118/19696513_zpid/,Sold
"1362 Branham Ln UNIT 3, San Jose, CA 95118",95118,520000.0,Sold 05/14/2019,1970,7078.0,CONDO,2500,440000.0,2,1.0,903,37.259873,-121.887339,https://www.zillow.com/homedetails/1362-Branham-Ln-UNIT-3-San-Jose-CA-95118/19759642_zpid/,Sold
"1335 Star Bush Ln, San Jose, CA 95118",95118,975000.0,Sold 05/13/2019,1977,1650.0,TOWNHOUSE,3508,684126.0,4,3.0,1450,37.244668,-121.887346,https://www.zillow.com/homedetails/1335-Star-Bush-Ln-San-Jose-CA-95118/19756117_zpid/,Sold
"4136 El Coral Way, San Jose, CA 95118",95118,1250000.0,Sold 05/10/2019,1966,6198.0,SINGLE_FAMILY,3700,389807.0,3,2.0,1756,37.265042,-121.883804,https://www.zillow.com/homedetails/4136-El-Coral-Way-San-Jose-CA-95118/19697572_zpid/,Sold
"1279 Foxwood Dr, San Jose, CA 95118",95118,849000.0,Sold 05/10/2019,1985,1842.0,CONDO,3450,277943.0,3,2.5,1480,37.248018,-121.884912,https://www.zillow.com/homedetails/1279-Foxwood-Dr-San-Jose-CA-95118/19760210_zpid/,Sold
"1307 Los Palos Way, San Jose, CA 95118",95118,1600000.0,Sold 05/09/2019,1966,6077.0,SINGLE_FAMILY,4400,302280.0,5,3.0,2148,37.264901,-121.884498,https://www.zillow.com/homedetails/1307-Los-Palos-Way-San-Jose-CA-95118/19697574_zpid/,Sold
"5063 El Roble Ct, San Jose, CA 95118",95118,1537000.0,Sold 05/09/2019,1968,8475.0,SINGLE_FAMILY,4400,533080.0,4,2.0,2015,37.252337,-121.894247,https://www.zillow.com/homedetails/5063-El-Roble-Ct-San-Jose-CA-95118/19759013_zpid/,Sold
"5228 Meridian Ave, San Jose, CA 95118",95118,950000.0,Sold 05/08/2019,1980,2310.0,TOWNHOUSE,3500,605478.0,3,2.5,1748,37.249887,-121.894622,https://www.zillow.com/homedetails/5228-Meridian-Ave-San-Jose-CA-95118/19759937_zpid/,Sold
"1547 Rose Anna Dr, San Jose, CA 95118",95118,1250000.0,Sold 05/07/2019,1959,6098.0,SINGLE_FAMILY,3900,827509.0,3,2.0,1272,37.246043,-121.89917,https://www.zillow.com/homedetails/1547-Rose-Anna-Dr-San-Jose-CA-95118/19757661_zpid/,Sold
"1372 Annapolis Way, San Jose, CA 95118",95118,1125000.0,Sold 05/06/2019,1963,6098.0,SINGLE_FAMILY,3550,517728.0,4,2.0,1408,37.254013,-121.886737,https://www.zillow.com/homedetails/1372-Annapolis-Way-San-Jose-CA-95118/19758657_zpid/,Sold
"1058 Cedar Gables Dr, San Jose, CA 95118",95118,590000.0,Sold 05/03/2019,1985,435.0,CONDO,2660,441716.0,2,2.0,824,37.261105,-121.877724,https://www.zillow.com/homedetails/1058-Cedar-Gables-Dr-San-Jose-CA-95118/19760152_zpid/,Sold
"1640 Branham Ln UNIT F, San Jose, CA 95118",95118,890000.0,Sold 05/03/2019,1977,1263.0,TOWNHOUSE,3200,678300.0,2,2.0,1134,37.251641,-121.902689,https://www.zillow.com/homedetails/1640-Branham-Ln-UNIT-F-San-Jose-CA-95118/19759905_zpid/,Sold
"5549 Russo Dr, San Jose, CA 95118",95118,583000.0,Sold 05/03/2019,1982,1785.0,CONDO,2800,427714.0,2,2.0,1020,37.250234,-121.879944,https://www.zillow.com/homedetails/5549-Russo-Dr-San-Jose-CA-95118/19757014_zpid/,Sold
"1453 Willowmont Ave, San Jose, CA 95118",95118,1050000.0,Sold 05/30/2019,1959,6298.0,SINGLE_FAMILY,3600,925955.0,3,2.0,1202,37.268998,-121.890487,https://www.zillow.com/homedetails/1453-Willowmont-Ave-San-Jose-CA-95118/19697163_zpid/,Sold
"5606 Doorn Ln, San Jose, CA 95118",95118,1105000.0,Sold 05/30/2019,1960,6254.0,SINGLE_FAMILY,3490,547103.0,3,1.5,1198,37.241839,-121.889838,https://www.zillow.com/homedetails/5606-Doorn-Ln-San-Jose-CA-95118/19755292_zpid/,Sold
"1507 Blossom Hill Rd, San Jose, CA 95118",95118,1195000.0,Sold 05/30/2019,1960,6651.0,SINGLE_FAMILY,3395,51519.0,4,2.0,1412,37.239897,-121.89492,https://www.zillow.com/homedetails/1507-Blossom-Hill-Rd-San-Jose-CA-95118/19754905_zpid/,Sold
"1593 Rebel Way, San Jose, CA 95118",95118,920000.0,Sold 05/29/2019,1966,6400.0,SINGLE_FAMILY,3500,356656.0,3,2.0,1491,37.250252,-121.902094,https://www.zillow.com/homedetails/1593-Rebel-Way-San-Jose-CA-95118/19759270_zpid/,Sold
"1350 Lansing Ave, San Jose, CA 95118",95118,950000.0,Sold 05/28/2019,1964,5967.0,SINGLE_FAMILY,3600,340337.0,4,2.0,1408,37.25304,-121.885719,https://www.zillow.com/homedetails/1350-Lansing-Ave-San-Jose-CA-95118/19758719_zpid/,Sold
"1504 Woodson Ct, San Jose, CA 95118",95118,350000.0,Sold 05/28/2019,1964,6175.0,SINGLE_FAMILY,3600,674757.0,3,2.0,1346,37.264167,-121.892718,https://www.zillow.com/homedetails/1504-Woodson-Ct-San-Jose-CA-95118/19697819_zpid/,Sold
"5747 Chambertin Dr, San Jose, CA 95118",95118,1800000.0,Sold 05/24/2019,-1,-1.0,SINGLE_FAMILY,4495,574977.0,,,,37.235996,-121.892537,https://www.zillow.com/homedetails/5747-Chambertin-Dr-San-Jose-CA-95118/19756658_zpid/,Sold
"1210 Montmorency Dr, San Jose, CA 95118",95118,1375000.0,Sold 05/23/2019,1984,5959.0,SINGLE_FAMILY,3950,838853.0,4,2.0,1846,37.263753,-121.882005,https://www.zillow.com/homedetails/1210-Montmorency-Dr-San-Jose-CA-95118/19698738_zpid/,Sold
"5633 Le Fevre Dr, San Jose, CA 95118",95118,1300000.0,Sold 05/22/2019,1994,3685.0,SINGLE_FAMILY,3895,407864.0,3,2.5,1573,37.238768,-121.8948,https://www.zillow.com/homedetails/5633-Le-Fevre-Dr-San-Jose-CA-95118/19756717_zpid/,Sold
"5543 Dwight Ave, San Jose, CA 95118",95118,1100000.0,Sold 05/22/2019,1961,6500.0,SINGLE_FAMILY,3600,65536.0,4,2.0,1392,37.238319,-121.90077,https://www.zillow.com/homedetails/5543-Dwight-Ave-San-Jose-CA-95118/19754897_zpid/,Sold
"3211 Ensalmo Ave, San Jose, CA 95118",95118,899500.0,Sold 05/21/2019,1953,4978.0,SINGLE_FAMILY,3450,288895.0,3,1.0,1140,37.268484,-121.904184,https://www.zillow.com/homedetails/3211-Ensalmo-Ave-San-Jose-CA-95118/19693672_zpid/,Sold
"1519 Estelle Ave, San Jose, CA 95118",95118,1340000.0,Sold 05/20/2019,1960,7339.0,SINGLE_FAMILY,4000,290475.0,4,3.0,1820,37.268399,-121.895572,https://www.zillow.com/homedetails/1519-Estelle-Ave-San-Jose-CA-95118/19694897_zpid/,Sold
"3950 Jarvis Ave, San Jose, CA 95118",95118,100000.0,Sold 05/20/2019,1964,6634.0,SINGLE_FAMILY,3540,76900.0,3,2.0,1346,37.264451,-121.892067,https://www.zillow.com/homedetails/3950-Jarvis-Ave-San-Jose-CA-95118/19697741_zpid/,Sold
"5199 Dent Ave, San Jose, CA 95118",95118,1100000.0,Sold 05/17/2019,1961,6063.0,SINGLE_FAMILY,3391,355138.0,3,2.0,1100,37.249321,-121.898521,https://www.zillow.com/homedetails/5199-Dent-Ave-San-Jose-CA-95118/19758205_zpid/,Sold
"1407 Annapolis Way, San Jose, CA 95118",95118,1100000.0,Sold 05/17/2019,1963,5867.0,SINGLE_FAMILY,3800,864960.0,3,2.0,1618,37.253413,-121.889014,https://www.zillow.com/homedetails/1407-Annapolis-Way-San-Jose-CA-95118/19758626_zpid/,Sold
"1394 Melwood Dr, San Jose, CA 95118",95118,1070000.0,Sold 05/17/2019,1960,6303.0,SINGLE_FAMILY,3550,864571.0,3,2.0,1220,37.248961,-121.889404,https://www.zillow.com/homedetails/1394-Melwood-Dr-San-Jose-CA-95118/19757302_zpid/,Sold
"4782 Jarvis Ave, San Jose, CA 95118",95118,1185000.0,Sold 05/15/2019,1966,6098.0,SINGLE_FAMILY,3900,882300.0,3,2.0,1475,37.257254,-121.889688,https://www.zillow.com/homedetails/4782-Jarvis-Ave-San-Jose-CA-95118/19758952_zpid/,Sold
"1171 Lynhurst Way, San Jose, CA 95118",95118,1295000.0,Sold 05/15/2019,1975,6015.0,SINGLE_FAMILY,3850,800866.0,4,2.0,1553,37.265703,-121.879909,https://www.zillow.com/homedetails/1171-Lynhurst-Way-San-Jose-CA-95118/19698890_zpid/,Sold
"1538 Foxworthy Ave, San Jose, CA 95118",95118,1040000.0,Sold 05/14/2019,1954,6773.0,SINGLE_FAMILY,3500,482138.0,3,1.5,1214,37.272355,-121.898837,https://www.zillow.com/homedetails/1538-Foxworthy-Ave-San-Jose-CA-95118/19693561_zpid/,Sold
"1362 Branham Ln UNIT 3, San Jose, CA 95118",95118,520000.0,Sold 05/14/2019,1970,7078.0,CONDO,2500,440000.0,2,1.0,903,37.259873,-121.887339,https://www.zillow.com/homedetails/1362-Branham-Ln-UNIT-3-San-Jose-CA-95118/19759642_zpid/,Sold
"1238 Willo Mar Dr, San Jose, CA 95118",95118,1025000.0,Sold 05/14/2019,1956,5819.0,SINGLE_FAMILY,3555,520043.0,4,2.0,1449,37.275991,-121.883996,https://www.zillow.com/homedetails/1238-Willo-Mar-Dr-San-Jose-CA-95118/19696513_zpid/,Sold
"1335 Star Bush Ln, San Jose, CA 95118",95118,975000.0,Sold 05/13/2019,1977,1650.0,TOWNHOUSE,3508,684126.0,4,3.0,1450,37.244668,-121.887346,https://www.zillow.com/homedetails/1335-Star-Bush-Ln-San-Jose-CA-95118/19756117_zpid/,Sold
"1279 Foxwood Dr, San Jose, CA 95118",95118,849000.0,Sold 05/10/2019,1985,1842.0,CONDO,3450,277943.0,3,2.5,1480,37.248018,-121.884912,https://www.zillow.com/homedetails/1279-Foxwood-Dr-San-Jose-CA-95118/19760210_zpid/,Sold
"4136 El Coral Way, San Jose, CA 95118",95118,1250000.0,Sold 05/10/2019,1966,6198.0,SINGLE_FAMILY,3700,389807.0,3,2.0,1756,37.265042,-121.883804,https://www.zillow.com/homedetails/4136-El-Coral-Way-San-Jose-CA-95118/19697572_zpid/,Sold
"1307 Los Palos Way, San Jose, CA 95118",95118,1600000.0,Sold 05/09/2019,1966,6077.0,SINGLE_FAMILY,4400,302280.0,5,3.0,2148,37.264901,-121.884498,https://www.zillow.com/homedetails/1307-Los-Palos-Way-San-Jose-CA-95118/19697574_zpid/,Sold
"5063 El Roble Ct, San Jose, CA 95118",95118,1537000.0,Sold 05/09/2019,1968,8475.0,SINGLE_FAMILY,4400,533080.0,4,2.0,2015,37.252337,-121.894247,https://www.zillow.com/homedetails/5063-El-Roble-Ct-San-Jose-CA-95118/19759013_zpid/,Sold
"5228 Meridian Ave, San Jose, CA 95118",95118,950000.0,Sold 05/08/2019,1980,2310.0,TOWNHOUSE,3500,605478.0,3,2.5,1748,37.249887,-121.894622,https://www.zillow.com/homedetails/5228-Meridian-Ave-San-Jose-CA-95118/19759937_zpid/,Sold
"1547 Rose Anna Dr, San Jose, CA 95118",95118,1250000.0,Sold 05/07/2019,1959,6098.0,SINGLE_FAMILY,3900,827509.0,3,2.0,1272,37.246043,-121.89917,https://www.zillow.com/homedetails/1547-Rose-Anna-Dr-San-Jose-CA-95118/19757661_zpid/,Sold
"1372 Annapolis Way, San Jose, CA 95118",95118,1125000.0,Sold 05/06/2019,1963,6098.0,SINGLE_FAMILY,3550,517728.0,4,2.0,1408,37.254013,-121.886737,https://www.zillow.com/homedetails/1372-Annapolis-Way-San-Jose-CA-95118/19758657_zpid/,Sold
"1058 Cedar Gables Dr, San Jose, CA 95118",95118,590000.0,Sold 05/03/2019,1985,435.0,CONDO,2660,441716.0,2,2.0,824,37.261105,-121.877724,https://www.zillow.com/homedetails/1058-Cedar-Gables-Dr-San-Jose-CA-95118/19760152_zpid/,Sold
"1640 Branham Ln UNIT F, San Jose, CA 95118",95118,890000.0,Sold 05/03/2019,1977,1263.0,TOWNHOUSE,3200,678300.0,2,2.0,1134,37.251641,-121.902689,https://www.zillow.com/homedetails/1640-Branham-Ln-UNIT-F-San-Jose-CA-95118/19759905_zpid/,Sold
"526 Robertsville Ct, San Jose, CA 95118",95118,795000.0,Sold 05/03/2019,1986,1585.0,CONDO,3300,633484.0,2,2.5,1306,37.257315,-121.879718,https://www.zillow.com/homedetails/526-Robertsville-Ct-San-Jose-CA-95118/19760249_zpid/,Sold
"5549 Russo Dr, San Jose, CA 95118",95118,583000.0,Sold 05/03/2019,1982,1785.0,CONDO,2800,427714.0,2,2.0,1020,37.250234,-121.879944,https://www.zillow.com/homedetails/5549-Russo-Dr-San-Jose-CA-95118/19757014_zpid/,Sold
"1107 Odyssey Ct, San Jose, CA 95118",95118,840000.0,Sold 05/03/2019,1983,1454.0,TOWNHOUSE,3495,761940.0,3,2.5,1693,37.257915,-121.878415,https://www.zillow.com/homedetails/1107-Odyssey-Ct-San-Jose-CA-95118/19760047_zpid/,Sold
"4809 Tampico Way, San Jose, CA 95118",95118,1435000.0,Sold 05/03/2019,1967,7379.0,SINGLE_FAMILY,4350,942695.0,4,3.0,2030,37.256329,-121.895397,https://www.zillow.com/homedetails/4809-Tampico-Way-San-Jose-CA-95118/19759197_zpid/,Sold
"1578 Trevor Dr, San Jose, CA 95118",95118,1320000.0,Sold 05/02/2019,1964,6790.0,SINGLE_FAMILY,3855,688512.0,4,2.0,1540,37.247961,-121.901474,https://www.zillow.com/homedetails/1578-Trevor-Dr-San-Jose-CA-95118/19758275_zpid/,Sold
"1446 Willowmont Ave, San Jose, CA 95118",95118,1430000.0,Sold 05/01/2019,1961,7770.0,SINGLE_FAMILY,4300,100053.0,4,3.0,1713,37.268699,-121.889816,https://www.zillow.com/homedetails/1446-Willowmont-Ave-San-Jose-CA-95118/19697280_zpid/,Sold
"3292 Jarvis Ave, San Jose, CA 95118",95118,725000.0,Sold 05/01/2019,1961,6300.0,SINGLE_FAMILY,3500,315808.0,4,2.0,1307,37.26998,-121.894332,https://www.zillow.com/homedetails/3292-Jarvis-Ave-San-Jose-CA-95118/19697071_zpid/,Sold
"4934 Corbin Ave, San Jose, CA 95118",95118,1125500.0,Sold 04/30/2019,1964,6120.0,SINGLE_FAMILY,3600,780671.0,4,2.0,1408,37.257055,-121.884643,https://www.zillow.com/homedetails/4934-Corbin-Ave-San-Jose-CA-95118/19758932_zpid/,Sold
"4930 Paseo Tranquillo, San Jose, CA 95118",95118,1094000.0,Sold 04/29/2019,2007,2317.0,SINGLE_FAMILY,3600,647434.0,3,3.0,1483,37.251934,-121.903983,https://www.zillow.com/homedetails/4930-Paseo-Tranquillo-San-Jose-CA-95118/82951536_zpid/,Sold
"1474 Portobelo Dr, San Jose, CA 95118",95118,1440000.0,Sold 04/29/2019,1967,6281.0,SINGLE_FAMILY,4300,448505.0,4,3.0,2030,37.254486,-121.894632,https://www.zillow.com/homedetails/1474-Portobelo-Dr-San-Jose-CA-95118/19759095_zpid/,Sold
"1244 Dorchester Ln, San Jose, CA 95118",95118,1252500.0,Sold 04/29/2019,1961,6098.0,SINGLE_FAMILY,4000,804081.0,3,2.0,1420,37.243587,-121.881936,https://www.zillow.com/homedetails/1244-Dorchester-Ln-San-Jose-CA-95118/19755730_zpid/,Sold
"1532 Hallcrest Dr, San Jose, CA 95118",95118,1100000.0,Sold 04/29/2019,1962,5985.0,SINGLE_FAMILY,3850,327700.0,5,2.0,1910,37.262071,-121.896172,https://www.zillow.com/homedetails/1532-Hallcrest-Dr-San-Jose-CA-95118/19697869_zpid/,Sold
"1541 Calinoma Dr, San Jose, CA 95118",95118,1181000.0,Sold 04/26/2019,1958,6616.0,SINGLE_FAMILY,3618,693501.0,3,2.0,1372,37.244795,-121.898072,https://www.zillow.com/homedetails/1541-Calinoma-Dr-San-Jose-CA-95118/19757705_zpid/,Sold
"1132 Carlsbad Dr, San Jose, CA 95118",95118,1650000.0,Sold 04/25/2019,1963,10166.0,MULTI_FAMILY,3300,1550000.0,0,,3200,37.247031,-121.876403,https://www.zillow.com/homedetails/1132-Carlsbad-Dr-San-Jose-CA-95118/153444082_zpid/,Sold
"1515 Jarvis Ct, San Jose, CA 95118",95118,1290000.0,Sold 04/24/2019,1964,7740.0,SINGLE_FAMILY,4000,812333.0,3,2.0,1378,37.263737,-121.892969,https://www.zillow.com/homedetails/1515-Jarvis-Ct-San-Jose-CA-95118/19697824_zpid/,Sold
"1570 Sabina Way, San Jose, CA 95118",95118,900000.0,Sold 04/23/2019,1960,6229.0,SINGLE_FAMILY,3625,488918.0,4,2.0,1180,37.2471,-121.89953,https://www.zillow.com/homedetails/1570-Sabina-Way-San-Jose-CA-95118/19758167_zpid/,Sold
"1281 Foxwood Dr, San Jose, CA 95118",95118,880000.0,Sold 04/23/2019,1985,1873.0,TOWNHOUSE,3400,528237.0,3,3.0,1533,37.247929,-121.884871,https://www.zillow.com/homedetails/1281-Foxwood-Dr-San-Jose-CA-95118/19760209_zpid/,Sold
"5015 Tifton Way, San Jose, CA 95118",95118,1059000.0,Video Walkthrough,1964,6425.0,SINGLE_FAMILY,3400,585505.0,3,2.0,1080,37.255124,-121.885931,https://www.zillow.com/homedetails/5015-Tifton-Way-San-Jose-CA-95118/19758798_zpid/,Sold
"3079 Ensalmo Ave, San Jose, CA 95118",95118,898000.0,Sold 02/13/2019,1953,4769.0,SINGLE_FAMILY,3450,55581.0,4,2.0,1140,37.269903,-121.904765,https://www.zillow.com/homedetails/3079-Ensalmo-Ave-San-Jose-CA-95118/19693663_zpid/,Sold
"3151 Arroba Way, San Jose, CA 95118",95118,875000.0,Sold 02/12/2019,1953,5301.0,SINGLE_FAMILY,3500,55581.0,4,1.0,1140,37.269735,-121.901958,https://www.zillow.com/homedetails/3151-Arroba-Way-San-Jose-CA-95118/19693621_zpid/,Sold
"1450 Jeffery Ave, San Jose, CA 95118",95118,1390000.0,Sold 02/12/2019,1955,5248.0,SINGLE_FAMILY,4000,319638.0,4,2.5,1800,37.273776,-121.892482,https://www.zillow.com/homedetails/1450-Jeffery-Ave-San-Jose-CA-95118/19696271_zpid/,Sold
"1496 Hillsdale Ave, San Jose, CA 95118",95118,945000.0,Video Walkthrough,1960,6290.0,SINGLE_FAMILY,3500,302618.0,3,2.0,1266,37.270768,-121.894356,https://www.zillow.com/homedetails/1496-Hillsdale-Ave-San-Jose-CA-95118/19697076_zpid/,Sold
"1575 Calle De Stuarda, San Jose, CA 95118",95118,1253000.0,Sold 02/08/2019,1975,6838.0,SINGLE_FAMILY,3700,252619.0,3,2.0,1614,37.260063,-121.898881,https://www.zillow.com/homedetails/1575-Calle-De-Stuarda-San-Jose-CA-95118/19699240_zpid/,Sold
"1339 Star Bush Ln, San Jose, CA 95118",95118,912500.0,Sold 02/06/2019,1977,2025.0,TOWNHOUSE,3200,579004.0,3,3.0,1318,37.24465,-121.887594,https://www.zillow.com/homedetails/1339-Star-Bush-Ln-San-Jose-CA-95118/19756119_zpid/,Sold
"4808 Pine Forest Pl, San Jose, CA 95118",95118,670000.0,Sold 02/01/2019,1987,436.0,CONDO,2800,598230.0,2,2.0,1060,37.252253,-121.904944,https://www.zillow.com/homedetails/4808-Pine-Forest-Pl-San-Jose-CA-95118/19760278_zpid/,Sold
"5727 Waltrip Ln, San Jose, CA 95118",95118,1140000.0,Sold 01/31/2019,1962,5998.0,SINGLE_FAMILY,3550,813852.0,4,2.0,1282,37.240442,-121.886862,https://www.zillow.com/homedetails/5727-Waltrip-Ln-San-Jose-CA-95118/19755402_zpid/,Sold
"3407 Buckingham Dr, San Jose, CA 95118",95118,358000.0,Sold 01/31/2019,1960,6696.0,SINGLE_FAMILY,3547,388822.0,3,2.0,1259,37.271139,-121.884304,https://www.zillow.com/homedetails/3407-Buckingham-Dr-San-Jose-CA-95118/19696767_zpid/,Sold
"1302 Cherry Ct, San Jose, CA 95118",95118,984000.0,Sold 01/22/2019,1961,6242.0,SINGLE_FAMILY,3695,74389.0,3,3.0,1900,37.262488,-121.884286,https://www.zillow.com/homedetails/1302-Cherry-Ct-San-Jose-CA-95118/19698596_zpid/,Sold
"1583 Branham Ln, San Jose, CA 95118",95118,1175000.0,Sold 01/18/2019,1966,5906.0,MULTI_FAMILY,3076,190766.0,4,4.0,2117,37.25417,-121.901311,https://www.zillow.com/homedetails/1583-Branham-Ln-San-Jose-CA-95118/19698341_zpid/,Sold
"1433 Blackstone Ave, San Jose, CA 95118",95118,1550000.0,Sold 01/15/2019,1971,5998.0,SINGLE_FAMILY,4400,93091.0,5,2.5,1787,37.273077,-121.891185,https://www.zillow.com/homedetails/1433-Blackstone-Ave-San-Jose-CA-95118/19696332_zpid/,Sold
"1518 Willowdale Dr, San Jose, CA 95118",95118,1024000.0,Sold 01/12/2019,1957,5797.0,SINGLE_FAMILY,3350,61468.0,3,2.0,1137,37.266581,-121.894858,https://www.zillow.com/homedetails/1518-Willowdale-Dr-San-Jose-CA-95118/19695027_zpid/,Sold
"1589 Willowbrook Dr, San Jose, CA 95118",95118,1300000.0,Sold 01/11/2019,1959,6200.0,SINGLE_FAMILY,3800,68377.0,5,3.0,1426,37.264587,-121.901146,https://www.zillow.com/homedetails/1589-Willowbrook-Dr-San-Jose-CA-95118/19695199_zpid/,Sold
"1274 Bouret Dr UNIT 4, San Jose, CA 95118",95118,157000.0,Sold 01/11/2019,1970,7078.0,CONDO,2395,367200.0,2,1.0,798,37.257664,-121.885223,https://www.zillow.com/homedetails/1274-Bouret-Dr-UNIT-4-San-Jose-CA-95118/19759433_zpid/,Sold
"5054 Trenary Way, San Jose, CA 95118",95118,980000.0,Sold 01/07/2019,1964,6534.0,SINGLE_FAMILY,3500,686027.0,3,2.0,1232,37.256153,-121.883911,https://www.zillow.com/homedetails/5054-Trenary-Way-San-Jose-CA-95118/19758881_zpid/,Sold
"5698 Waltrip Ln, San Jose, CA 95118",95118,1379000.0,Sold 01/07/2019,1963,6799.0,SINGLE_FAMILY,3650,601256.0,4,2.0,1730,37.241396,-121.886677,https://www.zillow.com/homedetails/5698-Waltrip-Ln-San-Jose-CA-95118/19755251_zpid/,Sold
"1522 Estelle Ave, San Jose, CA 95118",95118,1330000.0,Sold 01/04/2019,1960,6773.0,SINGLE_FAMILY,4395,232625.0,5,4.0,2450,37.267871,-121.895766,https://www.zillow.com/homedetails/1522-Estelle-Ave-San-Jose-CA-95118/19694929_zpid/,Sold
"1556 Foxworthy Ave, San Jose, CA 95118",95118,973000.0,Sold 01/03/2019,1957,7593.0,SINGLE_FAMILY,3500,209370.0,3,2.0,1310,37.272095,-121.899783,https://www.zillow.com/homedetails/1556-Foxworthy-Ave-San-Jose-CA-95118/19693557_zpid/,Sold
"1534 San Andreas Ave, San Jose, CA 95118",95118,1000000.0,Sold 01/01/2019,1955,5880.0,SINGLE_FAMILY,3950,70607.0,3,3.0,1690,37.271746,-121.898351,https://www.zillow.com/homedetails/1534-San-Andreas-Ave-San-Jose-CA-95118/19693490_zpid/,Sold
"1589 Branham Ln, San Jose, CA 95118",95118,1800000.0,Sold 12/31/2018,1966,6000.0,MULTI_FAMILY,3100,677694.0,,,2117,37.253904,-121.901843,https://www.zillow.com/homedetails/1589-Branham-Ln-San-Jose-CA-95118/19698344_zpid/,Sold
"5602 Hoffman Ct, San Jose, CA 95118",95118,1250000.0,Sold 12/28/2018,1962,5850.0,MULTI_FAMILY,3150,97222.0,0,,3134,37.249067,-121.880548,https://www.zillow.com/homedetails/5602-Hoffman-Ct-San-Jose-CA-95118/153444034_zpid/,Sold
"1560 Tobias Dr, San Jose, CA 95118",95118,1290000.0,Sold 12/28/2018,1959,6360.0,SINGLE_FAMILY,4010,958150.0,4,3.0,1771,37.2463,-121.899353,https://www.zillow.com/homedetails/1560-Tobias-Dr-San-Jose-CA-95118/19757654_zpid/,Sold
"5745 Park Manor Dr, San Jose, CA 95118",95118,1050000.0,Sold 12/28/2018,1964,6067.0,SINGLE_FAMILY,3800,253501.0,4,2.0,1586,37.233872,-121.898851,https://www.zillow.com/homedetails/5745-Park-Manor-Dr-San-Jose-CA-95118/19754763_zpid/,Sold
"3183 Cheshire Dr, San Jose, CA 95118",95118,1180000.0,Sold 12/28/2018,1968,5998.0,SINGLE_FAMILY,3500,518831.0,3,2.0,1570,37.274004,-121.881854,https://www.zillow.com/homedetails/3183-Cheshire-Dr-San-Jose-CA-95118/19696662_zpid/,Sold
"5064 Hawley Ct, San Jose, CA 95118",95118,1135000.0,Sold 12/27/2018,1963,6721.0,SINGLE_FAMILY,3775,95992.0,4,3.0,1734,37.249636,-121.901993,https://www.zillow.com/homedetails/5064-Hawley-Ct-San-Jose-CA-95118/19758336_zpid/,Sold
"1318 Foxworthy Ave, San Jose, CA 95118",95118,1100000.0,Sold 12/22/2018,1957,6300.0,SINGLE_FAMILY,3500,674458.0,3,2.0,1376,37.275858,-121.887359,https://www.zillow.com/homedetails/1318-Foxworthy-Ave-San-Jose-CA-95118/19696395_zpid/,Sold
"1456 Glacier Dr, San Jose, CA 95118",95118,1135000.0,Sold 12/22/2018,1964,5992.0,SINGLE_FAMILY,4000,977315.0,4,3.0,1996,37.262355,-121.891082,https://www.zillow.com/homedetails/1456-Glacier-Dr-San-Jose-CA-95118/19698496_zpid/,Sold
"5644 Waltrip Ln, San Jose, CA 95118",95118,1245000.0,Sold 12/19/2018,1963,7078.0,SINGLE_FAMILY,3650,359965.0,4,2.0,1514,37.242965,-121.887356,https://www.zillow.com/homedetails/5644-Waltrip-Ln-San-Jose-CA-95118/19755261_zpid/,Sold
"3095 Calzar Dr, San Jose, CA 95118",95118,1030000.0,Sold 12/18/2018,1953,5000.0,SINGLE_FAMILY,3500,518831.0,3,1.0,1140,37.270374,-121.902308,https://www.zillow.com/homedetails/3095-Calzar-Dr-San-Jose-CA-95118/19693598_zpid/,Sold
"1554 Kooser Rd, San Jose, CA 95118",95118,1170000.0,Sold 12/17/2018,1961,6000.0,SINGLE_FAMILY,3600,602549.0,4,2.0,1392,37.242017,-121.899004,https://www.zillow.com/homedetails/1554-Kooser-Rd-San-Jose-CA-95118/19754808_zpid/,Sold
"1631 Inglis Ln, San Jose, CA 95118",95118,1570000.0,Sold 12/17/2018,1960,8977.0,SINGLE_FAMILY,4250,640075.0,3,2.0,2064,37.244196,-121.905297,https://www.zillow.com/homedetails/1631-Inglis-Ln-San-Jose-CA-95118/19757885_zpid/,Sold
"3303 Thompson Ave, San Jose, CA 95118",95118,1420000.0,Sold 12/14/2018,1960,8224.0,SINGLE_FAMILY,4100,411113.0,4,2.5,1890,37.269323,-121.895647,https://www.zillow.com/homedetails/3303-Thompson-Ave-San-Jose-CA-95118/19694891_zpid/,Sold
"1591 Sabina Way, San Jose, CA 95118",95118,1330000.0,Sold 12/14/2018,1961,6677.0,SINGLE_FAMILY,3895,129806.0,3,2.0,1650,37.246724,-121.901545,https://www.zillow.com/homedetails/1591-Sabina-Way-San-Jose-CA-95118/19758154_zpid/,Sold
"5233 Joseph Ln, San Jose, CA 95118",95118,1040000.0,Sold 12/14/2018,1961,6255.0,SINGLE_FAMILY,3500,822708.0,4,2.0,1158,37.246053,-121.902113,https://www.zillow.com/homedetails/5233-Joseph-Ln-San-Jose-CA-95118/19758100_zpid/,Sold
"1437 Pinehurst Dr, San Jose, CA 95118",95118,1335000.0,Sold 12/13/2018,1964,6006.0,SINGLE_FAMILY,3825,71216.0,4,2.0,1474,37.263823,-121.890112,https://www.zillow.com/homedetails/1437-Pinehurst-Dr-San-Jose-CA-95118/19697764_zpid/,Sold
"1554 Sabina Way, San Jose, CA 95118",95118,1125000.0,Sold 12/11/2018,1960,6381.0,SINGLE_FAMILY,3477,896824.0,3,2.0,1095,37.248046,-121.899136,https://www.zillow.com/homedetails/1554-Sabina-Way-San-Jose-CA-95118/19758175_zpid/,Sold
"1341 Lyonsville Ln, San Jose, CA 95118",95118,1030000.0,Sold 12/11/2018,1962,6900.0,SINGLE_FAMILY,3500,433996.0,3,2.0,1287,37.243798,-121.887629,https://www.zillow.com/homedetails/1341-Lyonsville-Ln-San-Jose-CA-95118/19755265_zpid/,Sold
"1230 Weathersfield Way, San Jose, CA 95118",95118,1107000.0,Sold 12/10/2018,1962,7500.0,SINGLE_FAMILY,3600,603717.0,3,2.0,1300,37.243044,-121.881216,https://www.zillow.com/homedetails/1230-Weathersfield-Way-San-Jose-CA-95118/80276695_zpid/,Sold
"1318 Joplin Dr UNIT 4, San Jose, CA 95118",95118,248181.0,Sold 04/03/2019,1970,436.0,CONDO,2395,131184.0,2,1.0,798,37.258656,-121.885328,https://www.zillow.com/homedetails/1318-Joplin-Dr-UNIT-4-San-Jose-CA-95118/19759501_zpid/,Sold
"3584 Willowood Dr, San Jose, CA 95118",95118,975000.0,Sold 04/02/2019,1958,6098.0,SINGLE_FAMILY,3395,765000.0,3,1.0,960,37.266032,-121.897888,https://www.zillow.com/homedetails/3584-Willowood-Dr-San-Jose-CA-95118/19695098_zpid/,Sold
"1582 Marietta Dr, San Jose, CA 95118",95118,1500000.0,Sold 03/29/2019,1961,6259.0,SINGLE_FAMILY,4400,491752.0,4,2.0,1906,37.247457,-121.900694,https://www.zillow.com/homedetails/1582-Marietta-Dr-San-Jose-CA-95118/19758135_zpid/,Sold
"4804 Via De Caballe, San Jose, CA 95118",95118,1125000.0,Sold 03/29/2019,1976,7070.0,SINGLE_FAMILY,3600,662545.0,3,2.0,1614,37.257349,-121.893838,https://www.zillow.com/homedetails/4804-Via-De-Caballe-San-Jose-CA-95118/19759255_zpid/,Sold
"4472 Silva Ave, San Jose, CA 95118",95118,232000.0,Sold 03/29/2019,1969,7104.0,SINGLE_FAMILY,3750,80762.0,4,2.0,1547,37.261448,-121.886373,https://www.zillow.com/homedetails/4472-Silva-Ave-San-Jose-CA-95118/19698622_zpid/,Sold
"5739 Almaden Rd, San Jose, CA 95118",95118,756500.0,Sold 03/29/2019,1963,7560.0,MULTI_FAMILY,3250,988006.0,0,,3364,37.247251,-121.875448,https://www.zillow.com/homedetails/5739-Almaden-Rd-San-Jose-CA-95118/153444046_zpid/,Sold
"1384 Annapolis Way, San Jose, CA 95118",95118,1100000.0,Sold 03/29/2019,1963,6000.0,SINGLE_FAMILY,3550,482221.0,4,2.0,1408,37.253435,-121.887136,https://www.zillow.com/homedetails/1384-Annapolis-Way-San-Jose-CA-95118/19758652_zpid/,Sold
"1438 Willowmont Ave, San Jose, CA 95118",95118,1040000.0,Sold 03/27/2019,1961,7840.0,SINGLE_FAMILY,3540,551787.0,3,2.0,1198,37.268815,-121.889376,https://www.zillow.com/homedetails/1438-Willowmont-Ave-San-Jose-CA-95118/19697038_zpid/,Sold
"1552 Hillsdale Ave, San Jose, CA 95118",95118,288000.0,Sold 03/22/2019,1961,7666.0,SINGLE_FAMILY,3575,763470.0,4,2.0,1546,37.269277,-121.898517,https://www.zillow.com/homedetails/1552-Hillsdale-Ave-San-Jose-CA-95118/19694745_zpid/,Sold
"3129 Jenkins Ave, San Jose, CA 95118",95118,1258000.0,Sold 03/22/2019,1971,5999.0,SINGLE_FAMILY,3800,639157.0,5,3.0,1787,37.273243,-121.888869,https://www.zillow.com/homedetails/3129-Jenkins-Ave-San-Jose-CA-95118/19696378_zpid/,Sold
"1529 Jacob Ave, San Jose, CA 95118",95118,1050000.0,Sold 03/21/2019,1958,5998.0,SINGLE_FAMILY,3493,302507.0,3,2.0,1187,37.264757,-121.894954,https://www.zillow.com/homedetails/1529-Jacob-Ave-San-Jose-CA-95118/19695064_zpid/,Sold
"1604 Willowgate Dr, San Jose, CA 95118",95118,1015000.0,Video Walkthrough,1963,6451.0,SINGLE_FAMILY,3600,74878.0,3,2.0,1555,37.263269,-121.901522,https://www.zillow.com/homedetails/1604-Willowgate-Dr-San-Jose-CA-95118/19695284_zpid/,Sold
"1403 Annapolis Way, San Jose, CA 95118",95118,1130000.0,Sold 03/21/2019,1963,5959.0,SINGLE_FAMILY,3600,871301.0,4,2.0,1408,37.25346,-121.888817,https://www.zillow.com/homedetails/1403-Annapolis-Way-San-Jose-CA-95118/19758625_zpid/,Sold
"5050 Trenary Way, San Jose, CA 95118",95118,1010000.0,Sold 03/20/2019,1964,5967.0,SINGLE_FAMILY,3490,858330.0,3,2.0,1188,37.256411,-121.884236,https://www.zillow.com/homedetails/5050-Trenary-Way-San-Jose-CA-95118/19758883_zpid/,Sold
"1584 Ballantree Way, San Jose, CA 95118",95118,1300000.0,Sold 03/19/2019,1963,6960.0,SINGLE_FAMILY,4300,799046.0,4,3.0,2386,37.248365,-121.902355,https://www.zillow.com/homedetails/1584-Ballantree-Way-San-Jose-CA-95118/19758243_zpid/,Sold
"1431 Dentwood Dr, San Jose, CA 95118",95118,1250000.0,Sold 03/15/2019,1960,6120.0,SINGLE_FAMILY,3780,62490.0,3,3.0,1236,37.24987,-121.893435,https://www.zillow.com/homedetails/1431-Dentwood-Dr-San-Jose-CA-95118/19757198_zpid/,Sold
"1342 Shawn Dr UNIT 3, San Jose, CA 95118",95118,60000.0,Sold 03/15/2019,1970,436.0,CONDO,2500,297307.0,2,1.0,903,37.259191,-121.886613,https://www.zillow.com/homedetails/1342-Shawn-Dr-UNIT-3-San-Jose-CA-95118/19759563_zpid/,Sold
"1269 Foxwood Dr, San Jose, CA 95118",95118,880000.0,Sold 03/14/2019,1985,1873.0,TOWNHOUSE,3450,285961.0,3,2.5,1533,37.248409,-121.885078,https://www.zillow.com/homedetails/1269-Foxwood-Dr-San-Jose-CA-95118/19760215_zpid/,Sold
"5551 Yale Dr, San Jose, CA 95118",95118,1132000.0,Sold 03/13/2019,1959,6298.0,SINGLE_FAMILY,3500,60662.0,3,2.0,1189,37.241608,-121.894822,https://www.zillow.com/homedetails/5551-Yale-Dr-San-Jose-CA-95118/19755005_zpid/,Sold
"5318 Larchwood Dr, San Jose, CA 95118",95118,1359000.0,21 hours ago,1964,6804.0,SINGLE_FAMILY,3650,73251.0,4,3.0,1785,37.249967,-121.885815,https://www.zillow.com/homedetails/5318-Larchwood-Dr-San-Jose-CA-95118/19759829_zpid/,Sold
"5655 Sunflower Ln, San Jose, CA 95118",95118,880000.0,Video Walkthrough,1973,2138.0,TOWNHOUSE,3100,518557.0,3,2.0,1102,37.243639,-121.886571,https://www.zillow.com/homedetails/5655-Sunflower-Ln-San-Jose-CA-95118/19756060_zpid/,Sold
"1342 Lyonsville Ln, San Jose, CA 95118",95118,970000.0,Sold 03/09/2019,1962,6804.0,SINGLE_FAMILY,3500,131527.0,3,2.0,1196,37.243346,-121.887443,https://www.zillow.com/homedetails/1342-Lyonsville-Ln-San-Jose-CA-95118/19755264_zpid/,Sold
"1523 Foxworthy Ave, San Jose, CA 95118",95118,1300000.0,Sold 03/09/2019,1963,8932.0,SINGLE_FAMILY,4200,104303.0,4,3.0,1988,37.273137,-121.897755,https://www.zillow.com/homedetails/1523-Foxworthy-Ave-San-Jose-CA-95118/19692088_zpid/,Sold
"5350 Garwood Dr, San Jose, CA 95118",95118,975000.0,Sold 03/08/2019,1965,6660.0,SINGLE_FAMILY,3500,106372.0,3,2.0,1375,37.248715,-121.887327,https://www.zillow.com/homedetails/5350-Garwood-Dr-San-Jose-CA-95118/19757089_zpid/,Sold
"4915 Speak Ln, San Jose, CA 95118",95118,790000.0,Sold 03/06/2019,1981,1224.0,TOWNHOUSE,3400,567964.0,3,2.0,1420,37.25981,-121.879047,https://www.zillow.com/homedetails/4915-Speak-Ln-San-Jose-CA-95118/19759970_zpid/,Sold
"1266 Bouret Dr UNIT 4, San Jose, CA 95118",95118,520000.0,Video Walkthrough,1970,436.0,CONDO,2395,406403.0,2,1.0,798,37.257951,-121.88473,https://www.zillow.com/homedetails/1266-Bouret-Dr-UNIT-4-San-Jose-CA-95118/19759445_zpid/,Sold
"1587 Princeton Dr, San Jose, CA 95118",95118,1199000.0,Sold 03/04/2019,1961,5998.0,SINGLE_FAMILY,3800,465343.0,3,2.0,1628,37.240159,-121.901033,https://www.zillow.com/homedetails/1587-Princeton-Dr-San-Jose-CA-95118/19754859_zpid/,Sold
"1461 Portobelo Dr, San Jose, CA 95118",95118,1400000.0,Sold 03/01/2019,1968,6385.0,SINGLE_FAMILY,4375,94778.0,4,3.0,1937,37.255258,-121.893564,https://www.zillow.com/homedetails/1461-Portobelo-Dr-San-Jose-CA-95118/19759193_zpid/,Sold
"1229 Redcliff Dr, San Jose, CA 95118",95118,975000.0,Sold 02/28/2019,1956,6468.0,SINGLE_FAMILY,3500,333499.0,3,2.0,1176,37.275176,-121.883202,https://www.zillow.com/homedetails/1229-Redcliff-Dr-San-Jose-CA-95118/19696576_zpid/,Sold
"1653 Rebel Way, San Jose, CA 95118",95118,1200000.0,Sold 02/27/2019,1966,6790.0,SINGLE_FAMILY,3550,224595.0,3,2.0,1454,37.249409,-121.906117,https://www.zillow.com/homedetails/1653-Rebel-Way-San-Jose-CA-95118/19757964_zpid/,Sold
"1481 Hillsdale Ave, San Jose, CA 95118",95118,900000.0,Sold 02/26/2019,1960,5940.0,SINGLE_FAMILY,3500,496840.0,3,2.0,1270,37.271606,-121.893935,https://www.zillow.com/homedetails/1481-Hillsdale-Ave-San-Jose-CA-95118/19696162_zpid/,Sold
"4519 Cherry Ave, San Jose, CA 95118",95118,1250000.0,Sold 02/23/2019,1989,5928.0,SINGLE_FAMILY,4200,963924.0,5,3.0,2423,37.261227,-121.885899,https://www.zillow.com/homedetails/4519-Cherry-Ave-San-Jose-CA-95118/19698643_zpid/,Sold
"4970 Cherry Ave UNIT 208, San Jose, CA 95118",95118,430000.0,Sold 02/22/2019,1979,1879.0,CONDO,2400,316774.0,1,1.0,675,37.258383,-121.87966,https://www.zillow.com/homedetails/4970-Cherry-Ave-UNIT-208-San-Jose-CA-95118/82789760_zpid/,Sold
"1419 Rhine Ln, San Jose, CA 95118",95118,1325000.0,Sold 02/21/2019,1960,7200.0,SINGLE_FAMILY,3900,1094500.0,4,2.0,1525,37.240735,-121.891067,https://www.zillow.com/homedetails/1419-Rhine-Ln-San-Jose-CA-95118/19755281_zpid/,Sold
"1663 Branham Park Ct, San Jose, CA 95118",95118,698000.0,Sold 02/20/2019,1987,1032.0,CONDO,2750,192159.0,2,2.0,984,37.251979,-121.906144,https://www.zillow.com/homedetails/1663-Branham-Park-Ct-San-Jose-CA-95118/19760396_zpid/,Sold
"1516 San Joaquin Ave, San Jose, CA 95118",95118,1030000.0,Sold 02/20/2019,1954,5880.0,SINGLE_FAMILY,3500,593473.0,3,2.0,1214,37.271401,-121.896909,https://www.zillow.com/homedetails/1516-San-Joaquin-Ave-San-Jose-CA-95118/19693463_zpid/,Sold
"1307 Weathersfield Way, San Jose, CA 95118",95118,1100000.0,Sold 02/20/2019,1965,7405.0,SINGLE_FAMILY,3595,712723.0,3,2.0,1286,37.241202,-121.885688,https://www.zillow.com/homedetails/1307-Weathersfield-Way-San-Jose-CA-95118/19755448_zpid/,Sold
"1451 Jeffery Ave, San Jose, CA 95118",95118,60000.0,Sold 02/19/2019,1955,5247.0,SINGLE_FAMILY,3550,59234.0,4,2.0,1373,37.274145,-121.892823,https://www.zillow.com/homedetails/1451-Jeffery-Ave-San-Jose-CA-95118/19696279_zpid/,Sold
"3222 Ensalmo Ave, San Jose, CA 95118",95118,1100000.0,Sold 02/15/2019,1953,5985.0,SINGLE_FAMILY,3500,652800.0,3,2.0,1140,37.26849,-121.903623,https://www.zillow.com/homedetails/3222-Ensalmo-Ave-San-Jose-CA-95118/19693674_zpid/,Sold
"1511 San Andreas Ave, San Jose, CA 95118",95118,1075000.0,Sold 02/14/2019,1954,5880.0,SINGLE_FAMILY,3500,66958.0,3,2.0,1214,37.272663,-121.896678,https://www.zillow.com/homedetails/1511-San-Andreas-Ave-San-Jose-CA-95118/19693385_zpid/,Sold
"5015 Tifton Way, San Jose, CA 95118",95118,1059000.0,Video Walkthrough,1964,6425.0,SINGLE_FAMILY,3400,585505.0,3,2.0,1080,37.255124,-121.885931,https://www.zillow.com/homedetails/5015-Tifton-Way-San-Jose-CA-95118/19758798_zpid/,Sold
"3079 Ensalmo Ave, San Jose, CA 95118",95118,898000.0,Sold 02/13/2019,1953,4769.0,SINGLE_FAMILY,3450,55581.0,4,2.0,1140,37.269903,-121.904765,https://www.zillow.com/homedetails/3079-Ensalmo-Ave-San-Jose-CA-95118/19693663_zpid/,Sold
"3151 Arroba Way, San Jose, CA 95118",95118,875000.0,Sold 02/12/2019,1953,5301.0,SINGLE_FAMILY,3500,55581.0,4,1.0,1140,37.269735,-121.901958,https://www.zillow.com/homedetails/3151-Arroba-Way-San-Jose-CA-95118/19693621_zpid/,Sold
"1450 Jeffery Ave, San Jose, CA 95118",95118,1390000.0,Sold 02/12/2019,1955,5248.0,SINGLE_FAMILY,4000,319638.0,4,2.5,1800,37.273776,-121.892482,https://www.zillow.com/homedetails/1450-Jeffery-Ave-San-Jose-CA-95118/19696271_zpid/,Sold
"1496 Hillsdale Ave, San Jose, CA 95118",95118,945000.0,Video Walkthrough,1960,6290.0,SINGLE_FAMILY,3500,302618.0,3,2.0,1266,37.270768,-121.894356,https://www.zillow.com/homedetails/1496-Hillsdale-Ave-San-Jose-CA-95118/19697076_zpid/,Sold
"1575 Calle De Stuarda, San Jose, CA 95118",95118,1253000.0,Sold 02/08/2019,1975,6838.0,SINGLE_FAMILY,3700,252619.0,3,2.0,1614,37.260063,-121.898881,https://www.zillow.com/homedetails/1575-Calle-De-Stuarda-San-Jose-CA-95118/19699240_zpid/,Sold
"1339 Star Bush Ln, San Jose, CA 95118",95118,912500.0,Sold 02/06/2019,1977,2025.0,TOWNHOUSE,3200,579004.0,3,3.0,1318,37.24465,-121.887594,https://www.zillow.com/homedetails/1339-Star-Bush-Ln-San-Jose-CA-95118/19756119_zpid/,Sold
"4808 Pine Forest Pl, San Jose, CA 95118",95118,670000.0,Sold 02/01/2019,1987,436.0,CONDO,2800,598230.0,2,2.0,1060,37.252253,-121.904944,https://www.zillow.com/homedetails/4808-Pine-Forest-Pl-San-Jose-CA-95118/19760278_zpid/,Sold
"5727 Waltrip Ln, San Jose, CA 95118",95118,1140000.0,Sold 01/31/2019,1962,5998.0,SINGLE_FAMILY,3550,813852.0,4,2.0,1282,37.240442,-121.886862,https://www.zillow.com/homedetails/5727-Waltrip-Ln-San-Jose-CA-95118/19755402_zpid/,Sold
"3407 Buckingham Dr, San Jose, CA 95118",95118,358000.0,Sold 01/31/2019,1960,6696.0,SINGLE_FAMILY,3547,388822.0,3,2.0,1259,37.271139,-121.884304,https://www.zillow.com/homedetails/3407-Buckingham-Dr-San-Jose-CA-95118/19696767_zpid/,Sold
"1302 Cherry Ct, San Jose, CA 95118",95118,984000.0,Sold 01/22/2019,1961,6242.0,SINGLE_FAMILY,3695,74389.0,3,3.0,1900,37.262488,-121.884286,https://www.zillow.com/homedetails/1302-Cherry-Ct-San-Jose-CA-95118/19698596_zpid/,Sold
"1583 Branham Ln, San Jose, CA 95118",95118,1175000.0,Sold 01/18/2019,1966,5906.0,MULTI_FAMILY,3076,190766.0,4,4.0,2117,37.25417,-121.901311,https://www.zillow.com/homedetails/1583-Branham-Ln-San-Jose-CA-95118/19698341_zpid/,Sold
"1433 Blackstone Ave, San Jose, CA 95118",95118,1550000.0,Sold 01/15/2019,1971,5998.0,SINGLE_FAMILY,4400,93091.0,5,2.5,1787,37.273077,-121.891185,https://www.zillow.com/homedetails/1433-Blackstone-Ave-San-Jose-CA-95118/19696332_zpid/,Sold
"1518 Willowdale Dr, San Jose, CA 95118",95118,1024000.0,Sold 01/12/2019,1957,5797.0,SINGLE_FAMILY,3350,61468.0,3,2.0,1137,37.266581,-121.894858,https://www.zillow.com/homedetails/1518-Willowdale-Dr-San-Jose-CA-95118/19695027_zpid/,Sold
"1589 Willowbrook Dr, San Jose, CA 95118",95118,1300000.0,Sold 01/11/2019,1959,6200.0,SINGLE_FAMILY,3800,68377.0,5,3.0,1426,37.264587,-121.901146,https://www.zillow.com/homedetails/1589-Willowbrook-Dr-San-Jose-CA-95118/19695199_zpid/,Sold
"1274 Bouret Dr UNIT 4, San Jose, CA 95118",95118,157000.0,Sold 01/11/2019,1970,7078.0,CONDO,2395,367200.0,2,1.0,798,37.257664,-121.885223,https://www.zillow.com/homedetails/1274-Bouret-Dr-UNIT-4-San-Jose-CA-95118/19759433_zpid/,Sold
"5054 Trenary Way, San Jose, CA 95118",95118,980000.0,Sold 01/07/2019,1964,6534.0,SINGLE_FAMILY,3500,686027.0,3,2.0,1232,37.256153,-121.883911,https://www.zillow.com/homedetails/5054-Trenary-Way-San-Jose-CA-95118/19758881_zpid/,Sold
"5698 Waltrip Ln, San Jose, CA 95118",95118,1379000.0,Sold 01/07/2019,1963,6799.0,SINGLE_FAMILY,3650,601256.0,4,2.0,1730,37.241396,-121.886677,https://www.zillow.com/homedetails/5698-Waltrip-Ln-San-Jose-CA-95118/19755251_zpid/,Sold
"1522 Estelle Ave, San Jose, CA 95118",95118,1330000.0,Sold 01/04/2019,1960,6773.0,SINGLE_FAMILY,4395,232625.0,5,4.0,2450,37.267871,-121.895766,https://www.zillow.com/homedetails/1522-Estelle-Ave-San-Jose-CA-95118/19694929_zpid/,Sold
"1556 Foxworthy Ave, San Jose, CA 95118",95118,973000.0,Sold 01/03/2019,1957,7593.0,SINGLE_FAMILY,3500,209370.0,3,2.0,1310,37.272095,-121.899783,https://www.zillow.com/homedetails/1556-Foxworthy-Ave-San-Jose-CA-95118/19693557_zpid/,Sold
"1534 San Andreas Ave, San Jose, CA 95118",95118,1000000.0,Sold 01/01/2019,1955,5880.0,SINGLE_FAMILY,3950,70607.0,3,3.0,1690,37.271746,-121.898351,https://www.zillow.com/homedetails/1534-San-Andreas-Ave-San-Jose-CA-95118/19693490_zpid/,Sold
"1589 Branham Ln, San Jose, CA 95118",95118,1800000.0,Sold 12/31/2018,1966,6000.0,MULTI_FAMILY,3100,677694.0,,,2117,37.253904,-121.901843,https://www.zillow.com/homedetails/1589-Branham-Ln-San-Jose-CA-95118/19698344_zpid/,Sold
"5602 Hoffman Ct, San Jose, CA 95118",95118,1250000.0,Sold 12/28/2018,1962,5850.0,MULTI_FAMILY,3150,97222.0,0,,3134,37.249067,-121.880548,https://www.zillow.com/homedetails/5602-Hoffman-Ct-San-Jose-CA-95118/153444034_zpid/,Sold
"3183 Cheshire Dr, San Jose, CA 95118",95118,1180000.0,Sold 12/28/2018,1968,5998.0,SINGLE_FAMILY,3500,518831.0,3,2.0,1570,37.274004,-121.881854,https://www.zillow.com/homedetails/3183-Cheshire-Dr-San-Jose-CA-95118/19696662_zpid/,Sold
"1560 Tobias Dr, San Jose, CA 95118",95118,1290000.0,Sold 12/28/2018,1959,6360.0,SINGLE_FAMILY,4010,958150.0,4,3.0,1771,37.2463,-121.899353,https://www.zillow.com/homedetails/1560-Tobias-Dr-San-Jose-CA-95118/19757654_zpid/,Sold
"5745 Park Manor Dr, San Jose, CA 95118",95118,1050000.0,Sold 12/28/2018,1964,6067.0,SINGLE_FAMILY,3800,253501.0,4,2.0,1586,37.233872,-121.898851,https://www.zillow.com/homedetails/5745-Park-Manor-Dr-San-Jose-CA-95118/19754763_zpid/,Sold
"5064 Hawley Ct, San Jose, CA 95118",95118,1135000.0,Sold 12/27/2018,1963,6721.0,SINGLE_FAMILY,3775,95992.0,4,3.0,1734,37.249636,-121.901993,https://www.zillow.com/homedetails/5064-Hawley-Ct-San-Jose-CA-95118/19758336_zpid/,Sold
"1456 Glacier Dr, San Jose, CA 95118",95118,1135000.0,Sold 12/22/2018,1964,5992.0,SINGLE_FAMILY,4000,977315.0,4,3.0,1996,37.262355,-121.891082,https://www.zillow.com/homedetails/1456-Glacier-Dr-San-Jose-CA-95118/19698496_zpid/,Sold
"1318 Foxworthy Ave, San Jose, CA 95118",95118,1100000.0,Sold 12/22/2018,1957,6300.0,SINGLE_FAMILY,3500,674458.0,3,2.0,1376,37.275858,-121.887359,https://www.zillow.com/homedetails/1318-Foxworthy-Ave-San-Jose-CA-95118/19696395_zpid/,Sold
"5644 Waltrip Ln, San Jose, CA 95118",95118,1245000.0,Sold 12/19/2018,1963,7078.0,SINGLE_FAMILY,3650,359965.0,4,2.0,1514,37.242965,-121.887356,https://www.zillow.com/homedetails/5644-Waltrip-Ln-San-Jose-CA-95118/19755261_zpid/,Sold
"3095 Calzar Dr, San Jose, CA 95118",95118,1030000.0,Sold 12/18/2018,1953,5000.0,SINGLE_FAMILY,3500,518831.0,3,1.0,1140,37.270374,-121.902308,https://www.zillow.com/homedetails/3095-Calzar-Dr-San-Jose-CA-95118/19693598_zpid/,Sold
"1554 Kooser Rd, San Jose, CA 95118",95118,1170000.0,Sold 12/17/2018,1961,6000.0,SINGLE_FAMILY,3600,602549.0,4,2.0,1392,37.242017,-121.899004,https://www.zillow.com/homedetails/1554-Kooser-Rd-San-Jose-CA-95118/19754808_zpid/,Sold
"1631 Inglis Ln, San Jose, CA 95118",95118,1570000.0,Sold 12/17/2018,1960,8977.0,SINGLE_FAMILY,4250,640075.0,3,2.0,2064,37.244196,-121.905297,https://www.zillow.com/homedetails/1631-Inglis-Ln-San-Jose-CA-95118/19757885_zpid/,Sold
"5233 Joseph Ln, San Jose, CA 95118",95118,1040000.0,Sold 12/14/2018,1961,6255.0,SINGLE_FAMILY,3500,822708.0,4,2.0,1158,37.246053,-121.902113,https://www.zillow.com/homedetails/5233-Joseph-Ln-San-Jose-CA-95118/19758100_zpid/,Sold
"3303 Thompson Ave, San Jose, CA 95118",95118,1420000.0,Sold 12/14/2018,1960,8224.0,SINGLE_FAMILY,4100,411113.0,4,2.5,1890,37.269323,-121.895647,https://www.zillow.com/homedetails/3303-Thompson-Ave-San-Jose-CA-95118/19694891_zpid/,Sold
"1591 Sabina Way, San Jose, CA 95118",95118,1330000.0,Sold 12/14/2018,1961,6677.0,SINGLE_FAMILY,3895,129806.0,3,2.0,1650,37.246724,-121.901545,https://www.zillow.com/homedetails/1591-Sabina-Way-San-Jose-CA-95118/19758154_zpid/,Sold
"1437 Pinehurst Dr, San Jose, CA 95118",95118,1335000.0,Sold 12/13/2018,1964,6006.0,SINGLE_FAMILY,3825,71216.0,4,2.0,1474,37.263823,-121.890112,https://www.zillow.com/homedetails/1437-Pinehurst-Dr-San-Jose-CA-95118/19697764_zpid/,Sold
"1554 Sabina Way, San Jose, CA 95118",95118,1125000.0,Sold 12/11/2018,1960,6381.0,SINGLE_FAMILY,3477,896824.0,3,2.0,1095,37.248046,-121.899136,https://www.zillow.com/homedetails/1554-Sabina-Way-San-Jose-CA-95118/19758175_zpid/,Sold
"1341 Lyonsville Ln, San Jose, CA 95118",95118,1030000.0,Sold 12/11/2018,1962,6900.0,SINGLE_FAMILY,3500,433996.0,3,2.0,1287,37.243798,-121.887629,https://www.zillow.com/homedetails/1341-Lyonsville-Ln-San-Jose-CA-95118/19755265_zpid/,Sold
"1230 Weathersfield Way, San Jose, CA 95118",95118,1107000.0,Sold 12/10/2018,1962,7500.0,SINGLE_FAMILY,3600,603717.0,3,2.0,1300,37.243044,-121.881216,https://www.zillow.com/homedetails/1230-Weathersfield-Way-San-Jose-CA-95118/80276695_zpid/,Sold
"1466 Revere Ave, San Jose, CA 95118",95118,1130000.0,Sold 12/05/2018,1956,5248.0,SINGLE_FAMILY,3500,579547.0,4,2.0,1363,37.272696,-121.893423,https://www.zillow.com/homedetails/1466-Revere-Ave-San-Jose-CA-95118/19696204_zpid/,Sold
"1587 Jacob Ave, San Jose, CA 95118",95118,1400000.0,Sold 12/04/2018,1959,6300.0,SINGLE_FAMILY,4000,1008414.0,3,2.0,1762,37.263174,-121.900795,https://www.zillow.com/homedetails/1587-Jacob-Ave-San-Jose-CA-95118/19695275_zpid/,Sold
"5311 Woodstock Way, San Jose, CA 95118",95118,900000.0,Sold 11/30/2018,1959,6042.0,SINGLE_FAMILY,3500,65330.0,3,2.0,1360,37.247031,-121.894624,https://www.zillow.com/homedetails/5311-Woodstock-Way-San-Jose-CA-95118/19757484_zpid/,Sold
"5608 Hoffman Ct, San Jose, CA 95118",95118,1380000.0,Sold 11/30/2018,1962,7287.0,MULTI_FAMILY,3200,854983.0,8,4.0,3134,37.248942,-121.880443,https://www.zillow.com/homedetails/5608-Hoffman-Ct-San-Jose-CA-95118/153444021_zpid/,Sold
"1371 Holland Ct, San Jose, CA 95118",95118,980000.0,Sold 11/29/2018,1960,6899.0,SINGLE_FAMILY,3500,643148.0,3,2.0,1198,37.240099,-121.888643,https://www.zillow.com/homedetails/1371-Holland-Ct-San-Jose-CA-95118/19755314_zpid/,Sold
"1592 Jacob Ave, San Jose, CA 95118",95118,1175000.0,Sold 11/29/2018,1961,5998.0,SINGLE_FAMILY,3980,76900.0,5,2.0,1910,37.262672,-121.900923,https://www.zillow.com/homedetails/1592-Jacob-Ave-San-Jose-CA-95118/19698060_zpid/,Sold
"1241 Dentwood Dr, San Jose, CA 95118",95118,1135000.0,Sold 11/28/2018,1962,6825.0,SINGLE_FAMILY,3695,603721.0,4,3.0,1736,37.253178,-121.881793,https://www.zillow.com/homedetails/1241-Dentwood-Dr-San-Jose-CA-95118/19756946_zpid/,Sold
"1346 Branham Ln UNIT 3, San Jose, CA 95118",95118,480000.0,Sold 11/27/2018,1970,7100.0,CONDO,2500,327440.0,2,1.0,903,37.260126,-121.886371,https://www.zillow.com/homedetails/1346-Branham-Ln-UNIT-3-San-Jose-CA-95118/19759662_zpid/,Sold
"4056 Briarglen Dr, San Jose, CA 95118",95118,1025000.0,Sold 11/27/2018,1966,6699.0,SINGLE_FAMILY,3500,372974.0,3,2.0,1441,37.267434,-121.878881,https://www.zillow.com/homedetails/4056-Briarglen-Dr-San-Jose-CA-95118/19698858_zpid/,Sold
"1514 Hillsdale Ave, San Jose, CA 95118",95118,300909.0,Sold 11/21/2018,1959,6534.0,SINGLE_FAMILY,3550,836400.0,3,2.0,1631,37.269971,-121.896023,https://www.zillow.com/homedetails/1514-Hillsdale-Ave-San-Jose-CA-95118/19694862_zpid/,Sold
"1264 Sierra Mar Dr, San Jose, CA 95118",95118,1070000.0,Sold 11/20/2018,1956,6174.0,SINGLE_FAMILY,3490,62893.0,3,2.0,1176,37.275012,-121.884912,https://www.zillow.com/homedetails/1264-Sierra-Mar-Dr-San-Jose-CA-95118/19696567_zpid/,Sold
"1304 Joplin Dr UNIT 4, San Jose, CA 95118",95118,440000.0,Sold 11/17/2018,1970,436.0,CONDO,2395,273654.0,2,1.0,798,37.258798,-121.884865,https://www.zillow.com/homedetails/1304-Joplin-Dr-UNIT-4-San-Jose-CA-95118/19759508_zpid/,Sold
"1299 Foxwood Dr, San Jose, CA 95118",95118,985000.0,Sold 11/16/2018,1985,2098.0,TOWNHOUSE,3400,830238.0,3,3.0,1533,37.247598,-121.885444,https://www.zillow.com/homedetails/1299-Foxwood-Dr-San-Jose-CA-95118/19760205_zpid/,Sold
"3272 Vistamont Dr, San Jose, CA 95118",95118,1103000.0,Sold 11/16/2018,1959,5923.0,SINGLE_FAMILY,3500,238479.0,3,2.0,1442,37.272268,-121.88514,https://www.zillow.com/homedetails/3272-Vistamont-Dr-San-Jose-CA-95118/19696822_zpid/,Sold
"4019 Vistamont Dr, San Jose, CA 95118",95118,1510000.0,Sold 11/15/2018,1967,6298.0,SINGLE_FAMILY,4300,801914.0,4,2.0,1947,37.266136,-121.883857,https://www.zillow.com/homedetails/4019-Vistamont-Dr-San-Jose-CA-95118/19698985_zpid/,Sold
"1545 Calle De Stuarda, San Jose, CA 95118",95118,1205000.0,Sold 11/15/2018,1975,6838.0,SINGLE_FAMILY,4000,602235.0,4,2.0,1956,37.260858,-121.895944,https://www.zillow.com/homedetails/1545-Calle-De-Stuarda-San-Jose-CA-95118/19699225_zpid/,Sold
"1451 Revere Ave, San Jose, CA 95118",95118,962000.0,Sold 11/13/2018,1955,5248.0,SINGLE_FAMILY,3600,638531.0,4,2.0,1363,37.273467,-121.892548,https://www.zillow.com/homedetails/1451-Revere-Ave-San-Jose-CA-95118/19696265_zpid/,Sold
"1521 Willowbrook Dr, San Jose, CA 95118",95118,930000.0,Sold 11/10/2018,1957,5797.0,SINGLE_FAMILY,3495,756348.0,3,2.0,1137,37.266215,-121.895138,https://www.zillow.com/homedetails/1521-Willowbrook-Dr-San-Jose-CA-95118/19695006_zpid/,Sold
"1627 Foxworthy Ave, San Jose, CA 95118",95118,1050000.0,Sold 11/10/2018,1998,2060.0,TOWNHOUSE,3950,927013.0,4,2.5,2033,37.271847,-121.904647,https://www.zillow.com/homedetails/1627-Foxworthy-Ave-San-Jose-CA-95118/19691346_zpid/,Sold
"1302 Kipling Ct, San Jose, CA 95118",95118,1175000.0,Sold 11/09/2018,1962,6172.0,SINGLE_FAMILY,3500,600000.0,3,2.0,1248,37.261774,-121.88401,https://www.zillow.com/homedetails/1302-Kipling-Ct-San-Jose-CA-95118/19698580_zpid/,Sold
"4010 Knollglen Way, San Jose, CA 95118",95118,1335000.0,Sold 11/09/2018,1966,6534.0,SINGLE_FAMILY,3750,743145.0,4,2.0,1575,37.26673,-121.881646,https://www.zillow.com/homedetails/4010-Knollglen-Way-San-Jose-CA-95118/19698842_zpid/,Sold
"3161 Woodmont Dr, San Jose, CA 95118",95118,990000.0,Sold 11/07/2018,1960,6930.0,SINGLE_FAMILY,3500,475336.0,3,2.0,1460,37.272869,-121.886874,https://www.zillow.com/homedetails/3161-Woodmont-Dr-San-Jose-CA-95118/19696890_zpid/,Sold
"1524 Marlene Ct, San Jose, CA 95118",95118,756000.0,Sold 11/06/2018,1985,1472.0,TOWNHOUSE,3200,487012.0,2,3.0,1308,37.25704,-121.878938,https://www.zillow.com/homedetails/1524-Marlene-Ct-San-Jose-CA-95118/19760267_zpid/,Sold
"1634 Branham Ln, San Jose, CA 95118",95118,825000.0,Sold 11/05/2018,1977,1306.0,CONDO,3150,582624.0,2,2.0,1134,37.252808,-121.903163,https://www.zillow.com/homedetails/1634-Branham-Ln-San-Jose-CA-95118/19759880_zpid/,Sold
"1452 Fairhaven Dr, San Jose, CA 95118",95118,1150000.0,Sold 11/05/2018,1961,6391.0,SINGLE_FAMILY,3547,669323.0,3,2.0,1570,37.270934,-121.891402,https://www.zillow.com/homedetails/1452-Fairhaven-Dr-San-Jose-CA-95118/19697090_zpid/,Sold
"1128 Quail Run Ct, San Jose, CA 95118",95118,765000.0,Sold 11/01/2018,1981,1197.0,SINGLE_FAMILY,3395,646348.0,3,2.0,1420,37.259573,-121.879511,https://www.zillow.com/homedetails/1128-Quail-Run-Ct-San-Jose-CA-95118/19759965_zpid/,Sold
"1556 Park Ridge Dr, San Jose, CA 95118",95118,1295000.0,Sold 10/31/2018,1963,6098.0,SINGLE_FAMILY,3900,251464.0,3,2.0,1581,37.236717,-121.898634,https://www.zillow.com/homedetails/1556-Park-Ridge-Dr-San-Jose-CA-95118/19754712_zpid/,Sold
"4131 Briarglen Dr, San Jose, CA 95118",95118,1100000.0,Sold 10/31/2018,1975,7845.0,SINGLE_FAMILY,3600,640261.0,3,2.0,1392,37.266185,-121.878666,https://www.zillow.com/homedetails/4131-Briarglen-Dr-San-Jose-CA-95118/19698909_zpid/,Sold
"1260 Ironbridge Way, San Jose, CA 95118",95118,1335000.0,Sold 10/31/2018,1975,6037.0,SINGLE_FAMILY,4000,714285.0,4,3.0,2031,37.249414,-121.883286,https://www.zillow.com/homedetails/1260-Ironbridge-Way-San-Jose-CA-95118/19759802_zpid/,Sold
"1575 Delante Ter, San Jose, CA 95118",95118,760000.0,Sold 10/31/2018,2006,624.0,CONDO,2900,411802.0,2,2.5,1013,37.252666,-121.901041,https://www.zillow.com/homedetails/1575-Delante-Ter-San-Jose-CA-95118/79844053_zpid/,Sold
"5683 Tubac Ln, San Jose, CA 95118",95118,1149000.0,Sold 10/31/2018,1964,6102.0,SINGLE_FAMILY,3500,154791.0,3,2.0,1276,37.241978,-121.886567,https://www.zillow.com/homedetails/5683-Tubac-Ln-San-Jose-CA-95118/19755500_zpid/,Sold
"5103 Joseph Ln, San Jose, CA 95118",95118,1225000.0,Sold 10/30/2018,1963,6207.0,SINGLE_FAMILY,3550,369041.0,3,2.0,1514,37.248052,-121.903564,https://www.zillow.com/homedetails/5103-Joseph-Ln-San-Jose-CA-95118/19758123_zpid/,Sold
"1556 Chambers Dr, San Jose, CA 95118",95118,1280000.0,Sold 10/30/2018,1960,6825.0,SINGLE_FAMILY,3850,802410.0,4,3.0,1789,37.267262,-121.898041,https://www.zillow.com/homedetails/1556-Chambers-Dr-San-Jose-CA-95118/19694805_zpid/,Sold
"3340 Cherry Ave, San Jose, CA 95118",95118,1070000.0,Sold 10/30/2018,1963,6002.0,SINGLE_FAMILY,3700,371866.0,5,2.0,1595,37.27101,-121.888338,https://www.zillow.com/homedetails/3340-Cherry-Ave-San-Jose-CA-95118/19696940_zpid/,Sold
"5357 Larchwood Dr, San Jose, CA 95118",95118,1025000.0,Sold 10/29/2018,1965,6920.0,SINGLE_FAMILY,3750,822515.0,4,2.0,1622,37.248882,-121.885986,https://www.zillow.com/homedetails/5357-Larchwood-Dr-San-Jose-CA-95118/19757157_zpid/,Sold
"1623 Babero Ave, San Jose, CA 95118",95118,1105000.0,Sold 10/26/2018,1953,4987.0,SINGLE_FAMILY,3500,806310.0,3,2.0,1140,37.270703,-121.903892,https://www.zillow.com/homedetails/1623-Babero-Ave-San-Jose-CA-95118/19693654_zpid/,Sold
"1486 Ridgewood Dr, San Jose, CA 95118",95118,1100000.0,Sold 10/26/2018,1959,6018.0,SINGLE_FAMILY,3500,223036.0,3,2.0,1548,37.245075,-121.894315,https://www.zillow.com/homedetails/1486-Ridgewood-Dr-San-Jose-CA-95118/19757508_zpid/,Sold
"1505 Hillsdale Ave, San Jose, CA 95118",95118,1110000.0,Sold 10/25/2018,1954,7954.0,SINGLE_FAMILY,3600,670725.0,3,2.0,1298,37.270866,-121.895523,https://www.zillow.com/homedetails/1505-Hillsdale-Ave-San-Jose-CA-95118/19693403_zpid/,Sold
"5673 Holland Ln, San Jose, CA 95118",95118,1178000.0,Sold 10/23/2018,1960,5959.0,SINGLE_FAMILY,3500,128127.0,4,2.0,1252,37.241167,-121.88916,https://www.zillow.com/homedetails/5673-Holland-Ln-San-Jose-CA-95118/19755301_zpid/,Sold
"5067 Rebel Ct, San Jose, CA 95118",95118,1669212.0,Sold 10/23/2018,1963,9347.0,SINGLE_FAMILY,4600,917029.0,5,3.0,2862,37.24936,-121.903488,https://www.zillow.com/homedetails/5067-Rebel-Ct-San-Jose-CA-95118/19758320_zpid/,Sold
"1477 Hauck Dr, San Jose, CA 95118",95118,1300000.0,Sold 05/31/2018,1959,6307.0,SINGLE_FAMILY,4000,948524.0,5,2.0,2112,37.26924,-121.892427,https://www.zillow.com/homedetails/1477-Hauck-Dr-San-Jose-CA-95118/19697135_zpid/,Sold
"5316 Ayrshire Dr, San Jose, CA 95118",95118,8500.0,Sold 05/31/2018,1976,6300.0,SINGLE_FAMILY,11246,1251000.0,4,2.0,1601,37.251723,-121.883023,https://www.zillow.com/homedetails/5316-Ayrshire-Dr-San-Jose-CA-95118/19757023_zpid/,Sold
"1514 Willowbrook Dr, San Jose, CA 95118",95118,1470000.0,Sold 05/29/2018,1957,5880.0,SINGLE_FAMILY,4000,580770.0,3,2.0,1367,37.265956,-121.894376,https://www.zillow.com/homedetails/1514-Willowbrook-Dr-San-Jose-CA-95118/19695056_zpid/,Sold
"1284 Rodney Dr, San Jose, CA 95118",95118,1420000.0,Video Walkthrough,1959,8023.0,SINGLE_FAMILY,3700,707349.0,3,2.0,1580,37.267806,-121.883266,https://www.zillow.com/homedetails/1284-Rodney-Dr-San-Jose-CA-95118/19697448_zpid/,Sold
"1280 Lansing Ave, San Jose, CA 95118",95118,1220000.0,Sold 05/29/2018,1964,5985.0,SINGLE_FAMILY,3600,755000.0,4,2.0,1408,37.253671,-121.883273,https://www.zillow.com/homedetails/1280-Lansing-Ave-San-Jose-CA-95118/19758732_zpid/,Sold
"1387 Bouret Dr, San Jose, CA 95118",95118,1220000.0,Sold 05/29/2018,1963,6011.0,SINGLE_FAMILY,3550,953700.0,4,2.0,1360,37.254886,-121.889128,https://www.zillow.com/homedetails/1387-Bouret-Dr-San-Jose-CA-95118/19758546_zpid/,Sold
"1522 Willowgate Dr, San Jose, CA 95118",95118,1185000.0,Sold 05/29/2018,1957,5662.0,SINGLE_FAMILY,3400,560870.0,3,2.0,1137,37.26512,-121.894684,https://www.zillow.com/homedetails/1522-Willowgate-Dr-San-Jose-CA-95118/19695081_zpid/,Sold
"4966 Paseo Tranquillo, San Jose, CA 95118",95118,885000.0,Sold 05/25/2018,1981,1393.0,TOWNHOUSE,3490,512963.0,3,2.0,1395,37.251447,-121.903683,https://www.zillow.com/homedetails/4966-Paseo-Tranquillo-San-Jose-CA-95118/19760011_zpid/,Sold
"5221 Dent Ave, San Jose, CA 95118",95118,1229000.0,Sold 05/25/2018,1960,6050.0,SINGLE_FAMILY,3430,759391.0,3,2.0,1095,37.24866,-121.898044,https://www.zillow.com/homedetails/5221-Dent-Ave-San-Jose-CA-95118/19758210_zpid/,Sold
"1527 Ilikai Ave, San Jose, CA 95118",95118,1615000.0,Sold 05/25/2018,1974,5662.0,SINGLE_FAMILY,4500,700081.0,4,2.0,1956,37.259049,-121.897032,https://www.zillow.com/homedetails/1527-Ilikai-Ave-San-Jose-CA-95118/19699310_zpid/,Sold
"5391 Estrade Dr, San Jose, CA 95118",95118,1375000.0,Sold 05/25/2018,1959,6895.0,SINGLE_FAMILY,3750,685722.0,3,2.0,1300,37.245426,-121.894551,https://www.zillow.com/homedetails/5391-Estrade-Dr-San-Jose-CA-95118/19757557_zpid/,Sold
"5624 Seifert Ave, San Jose, CA 95118",95118,1339000.0,Sold 05/24/2018,1960,6442.0,SINGLE_FAMILY,4100,879866.0,3,2.0,1425,37.245924,-121.885392,https://www.zillow.com/homedetails/5624-Seifert-Ave-San-Jose-CA-95118/19755648_zpid/,Sold
"5370 Clovercrest Dr, San Jose, CA 95118",95118,1200000.0,Sold 05/24/2018,1962,6734.0,SINGLE_FAMILY,3650,598312.0,4,3.0,1714,37.25218,-121.881234,https://www.zillow.com/homedetails/5370-Clovercrest-Dr-San-Jose-CA-95118/19756940_zpid/,Sold
"4863 Popejoy Ct, San Jose, CA 95118",95118,1250000.0,Sold 05/23/2018,1978,8300.0,SINGLE_FAMILY,3800,653064.0,4,2.0,1800,37.251534,-121.907294,https://www.zillow.com/homedetails/4863-Popejoy-Ct-San-Jose-CA-95118/19759746_zpid/,Sold
"1304 Dentwood Dr, San Jose, CA 95118",95118,1498000.0,Sold 05/23/2018,1976,6300.0,SINGLE_FAMILY,4200,928284.0,3,2.0,1794,37.250996,-121.885858,https://www.zillow.com/homedetails/1304-Dentwood-Dr-San-Jose-CA-95118/19759844_zpid/,Sold
"5039 Jarvis Ave, San Jose, CA 95118",95118,1200000.0,Video Walkthrough,1963,5985.0,SINGLE_FAMILY,3700,818350.0,4,2.0,1408,37.254301,-121.886483,https://www.zillow.com/homedetails/5039-Jarvis-Ave-San-Jose-CA-95118/19758663_zpid/,Sold
"3140 Santa Margarita Ave, San Jose, CA 95118",95118,1711000.0,Sold 05/21/2018,1955,12330.0,SINGLE_FAMILY,4495,594777.0,4,4.0,2376,37.27116,-121.895772,https://www.zillow.com/homedetails/3140-Santa-Margarita-Ave-San-Jose-CA-95118/19693422_zpid/,Sold
"1086 Cedar Gables Dr, San Jose, CA 95118",95118,630000.0,Sold 05/18/2018,1985,435.0,CONDO,2678,362759.0,2,2.0,824,37.261499,-121.877423,https://www.zillow.com/homedetails/1086-Cedar-Gables-Dr-San-Jose-CA-95118/19760125_zpid/,Sold
"4773 Pine Forest Ln, San Jose, CA 95118",95118,795000.0,Sold 05/18/2018,1987,436.0,CONDO,2800,559304.0,2,2.0,1060,37.251794,-121.905328,https://www.zillow.com/homedetails/4773-Pine-Forest-Ln-San-Jose-CA-95118/19760336_zpid/,Sold
"5649 Strawflower Ln, San Jose, CA 95118",95118,300000.0,Sold 05/18/2018,1977,1650.0,TOWNHOUSE,3500,578569.0,4,2.5,1450,37.243561,-121.885126,https://www.zillow.com/homedetails/5649-Strawflower-Ln-San-Jose-CA-95118/19756013_zpid/,Sold
"5063 Corbin Ave, San Jose, CA 95118",95118,1168000.0,Sold 05/18/2018,1964,5919.0,SINGLE_FAMILY,3400,95389.0,3,2.0,1188,37.254744,-121.884773,https://www.zillow.com/homedetails/5063-Corbin-Ave-San-Jose-CA-95118/19758767_zpid/,Sold
"1559 Marietta Dr, San Jose, CA 95118",95118,1400000.0,Sold 05/18/2018,1961,6385.0,SINGLE_FAMILY,3950,299654.0,4,2.0,1413,37.248491,-121.899614,https://www.zillow.com/homedetails/1559-Marietta-Dr-San-Jose-CA-95118/19758297_zpid/,Sold
"5329 Joseph Ln, San Jose, CA 95118",95118,1425000.0,Sold 05/17/2018,1958,6642.0,SINGLE_FAMILY,3700,658694.0,3,2.0,1272,37.243703,-121.900422,https://www.zillow.com/homedetails/5329-Joseph-Ln-San-Jose-CA-95118/19757783_zpid/,Sold
"1253 Redcliff Dr, San Jose, CA 95118",95118,985000.0,Sold 05/17/2018,1956,6076.0,SINGLE_FAMILY,3500,320316.0,4,2.0,1248,37.274859,-121.884408,https://www.zillow.com/homedetails/1253-Redcliff-Dr-San-Jose-CA-95118/19696582_zpid/,Sold
"1642 Branham Ln UNIT B, San Jose, CA 95118",95118,888000.0,Sold 05/16/2018,1977,1089.0,CONDO,3150,613836.0,2,1.5,1134,37.251943,-121.90327,https://www.zillow.com/homedetails/1642-Branham-Ln-UNIT-B-San-Jose-CA-95118/19759919_zpid/,Sold
"4109 Ross Park Dr, San Jose, CA 95118",95118,1335000.0,Sold 05/15/2018,1964,5963.0,SINGLE_FAMILY,3950,568508.0,4,3.0,2436,37.263832,-121.89143,https://www.zillow.com/homedetails/4109-Ross-Park-Dr-San-Jose-CA-95118/19697728_zpid/,Sold
"1554 San Joaquin Ave, San Jose, CA 95118",95118,1340000.0,Sold 05/15/2018,1954,5815.0,SINGLE_FAMILY,3550,610213.0,3,2.0,1214,37.2707,-121.899454,https://www.zillow.com/homedetails/1554-San-Joaquin-Ave-San-Jose-CA-95118/19693450_zpid/,Sold
"1618 Inglis Ln, San Jose, CA 95118",95118,1320000.0,Sold 05/14/2018,1960,8870.0,SINGLE_FAMILY,4200,65953.0,4,2.0,1645,37.243639,-121.905163,https://www.zillow.com/homedetails/1618-Inglis-Ln-San-Jose-CA-95118/19757871_zpid/,Sold
"4946 Rio Verde Dr, San Jose, CA 95118",95118,1550000.0,Sold 05/11/2018,1968,7588.0,SINGLE_FAMILY,4390,103144.0,4,2.5,2009,37.252944,-121.894977,https://www.zillow.com/homedetails/4946-Rio-Verde-Dr-San-Jose-CA-95118/19759061_zpid/,Sold
"1563 Shaw Dr, San Jose, CA 95118",95118,1200000.0,Sold 05/11/2018,1961,6825.0,SINGLE_FAMILY,3689,748480.0,3,2.0,1707,37.268662,-121.899681,https://www.zillow.com/homedetails/1563-Shaw-Dr-San-Jose-CA-95118/19694752_zpid/,Sold
"3190 San Clemente Ave, San Jose, CA 95118",95118,1100000.0,Video Walkthrough,1955,6969.0,SINGLE_FAMILY,3600,638206.0,4,3.0,1600,37.269661,-121.899523,https://www.zillow.com/homedetails/3190-San-Clemente-Ave-San-Jose-CA-95118/19693520_zpid/,Sold
"4005 Laurelglen Ct, San Jose, CA 95118",95118,1360000.0,Sold 05/10/2018,1966,6700.0,SINGLE_FAMILY,3850,808024.0,3,2.0,1529,37.266388,-121.883032,https://www.zillow.com/homedetails/4005-Laurelglen-Ct-San-Jose-CA-95118/19698946_zpid/,Sold
"5362 Meridian Ave, San Jose, CA 95118",95118,1203000.0,Sold 05/09/2018,1959,6181.0,SINGLE_FAMILY,3500,677451.0,3,2.0,1300,37.246851,-121.892634,https://www.zillow.com/homedetails/5362-Meridian-Ave-San-Jose-CA-95118/19757418_zpid/,Sold
"1270 Rodney Dr, San Jose, CA 95118",95118,1600000.0,Sold 05/09/2018,1959,8084.0,SINGLE_FAMILY,4450,1070000.0,6,3.0,2308,37.268022,-121.882591,https://www.zillow.com/homedetails/1270-Rodney-Dr-San-Jose-CA-95118/19697451_zpid/,Sold
"1629 Foxworthy Ave, San Jose, CA 95118",95118,1450000.0,Sold 05/08/2018,1998,2597.0,SINGLE_FAMILY,4100,905865.0,4,3.0,2033,37.272049,-121.904794,https://www.zillow.com/homedetails/1629-Foxworthy-Ave-San-Jose-CA-95118/19691347_zpid/,Sold
"5626 Strawflower Ln, San Jose, CA 95118",95118,980000.0,Sold 05/07/2018,1977,1650.0,CONDO,3500,138028.0,4,2.5,1450,37.244304,-121.885383,https://www.zillow.com/homedetails/5626-Strawflower-Ln-San-Jose-CA-95118/19756025_zpid/,Sold
"1420 Gaucho Ct, San Jose, CA 95118",95118,1510000.0,Sold 05/04/2018,1966,9400.0,SINGLE_FAMILY,4395,731602.0,5,3.0,1942,37.264796,-121.887586,https://www.zillow.com/homedetails/1420-Gaucho-Ct-San-Jose-CA-95118/19697539_zpid/,Sold
"1541 Princeton Dr, San Jose, CA 95118",95118,1300000.0,Sold 05/02/2018,1958,6185.0,SINGLE_FAMILY,3675,894744.0,3,2.0,1185,37.242438,-121.897332,https://www.zillow.com/homedetails/1541-Princeton-Dr-San-Jose-CA-95118/19755092_zpid/,Sold
"4308 Silva Ave, San Jose, CA 95118",95118,1392000.0,Sold 05/02/2018,1969,8463.0,SINGLE_FAMILY,3840,473610.0,4,3.0,1726,37.262808,-121.886849,https://www.zillow.com/homedetails/4308-Silva-Ave-San-Jose-CA-95118/19698630_zpid/,Sold
"1479 Myrtle Ave, San Jose, CA 95118",95118,426000.0,Sold 05/02/2018,1961,6185.0,SINGLE_FAMILY,3900,669042.0,3,2.0,1796,37.269888,-121.892835,https://www.zillow.com/homedetails/1479-Myrtle-Ave-San-Jose-CA-95118/19697102_zpid/,Sold
"5259 Meridian Ave, San Jose, CA 95118",95118,960000.0,Sold 09/28/2018,1959,6133.0,SINGLE_FAMILY,3390,729810.0,3,2.0,1080,37.248627,-121.894689,https://www.zillow.com/homedetails/5259-Meridian-Ave-San-Jose-CA-95118/19757436_zpid/,Sold
"1339 Shawn Dr UNIT 1, San Jose, CA 95118",95118,490000.0,Sold 09/28/2018,1970,435.0,CONDO,2400,385886.0,2,1.0,810,37.259675,-121.88656,https://www.zillow.com/homedetails/1339-Shawn-Dr-UNIT-1-San-Jose-CA-95118/19759688_zpid/,Sold
"1334 Lindsay Way, San Jose, CA 95118",95118,233500.0,Sold 09/28/2018,1959,6000.0,SINGLE_FAMILY,4200,718883.0,4,3.0,2277,37.269888,-121.885426,https://www.zillow.com/homedetails/1334-Lindsay-Way-San-Jose-CA-95118/19696975_zpid/,Sold
"1347 Scossa Ave APT 4, San Jose, CA 95118",95118,526000.0,Sold 09/28/2018,1970,436.0,CONDO,2395,160943.0,2,1.0,798,37.258171,-121.888527,https://www.zillow.com/homedetails/1347-Scossa-Ave-APT-4-San-Jose-CA-95118/19759409_zpid/,Sold
"4912 Paseo Tranquillo, San Jose, CA 95118",95118,887300.0,Sold 09/27/2018,1981,1433.0,TOWNHOUSE,3500,467280.0,3,2.0,1395,37.252185,-121.9043,https://www.zillow.com/homedetails/4912-Paseo-Tranquillo-San-Jose-CA-95118/19760029_zpid/,Sold
"1434 Lansing Ave, San Jose, CA 95118",95118,879000.0,Sold 09/27/2018,1963,6263.0,SINGLE_FAMILY,3490,496887.0,3,2.0,1232,37.252006,-121.889733,https://www.zillow.com/homedetails/1434-Lansing-Ave-San-Jose-CA-95118/19758698_zpid/,Sold
"1428 Gaucho Ct, San Jose, CA 95118",95118,1360000.0,Sold 09/27/2018,1966,10300.0,SINGLE_FAMILY,4195,135990.0,4,3.0,1996,37.264818,-121.887851,https://www.zillow.com/homedetails/1428-Gaucho-Ct-San-Jose-CA-95118/19697538_zpid/,Sold
"3325 Cheshire Dr, San Jose, CA 95118",95118,1130000.0,Sold 09/26/2018,1968,6098.0,SINGLE_FAMILY,3600,717880.0,3,2.0,1265,37.272533,-121.881614,https://www.zillow.com/homedetails/3325-Cheshire-Dr-San-Jose-CA-95118/19696671_zpid/,Sold
"5643 Strawflower Ln, San Jose, CA 95118",95118,900000.0,Sold 09/26/2018,1977,2069.0,TOWNHOUSE,3125,246507.0,2,2.0,1209,37.243621,-121.885434,https://www.zillow.com/homedetails/5643-Strawflower-Ln-San-Jose-CA-95118/19756010_zpid/,Sold
"5346 Joseph Ln, San Jose, CA 95118",95118,1200000.0,Sold 09/25/2018,1958,6934.0,SINGLE_FAMILY,3600,613413.0,4,2.0,1400,37.243592,-121.899678,https://www.zillow.com/homedetails/5346-Joseph-Ln-San-Jose-CA-95118/19757766_zpid/,Sold
"1338 Cherry Ct, San Jose, CA 95118",95118,1025000.0,Sold 09/25/2018,1961,7139.0,SINGLE_FAMILY,3300,585505.0,3,2.0,1008,37.261985,-121.885548,https://www.zillow.com/homedetails/1338-Cherry-Ct-San-Jose-CA-95118/19698589_zpid/,Sold
"5319 Estrade Dr, San Jose, CA 95118",95118,1220000.0,Video Walkthrough,1959,6107.0,SINGLE_FAMILY,3600,946763.0,3,2.0,1568,37.246568,-121.895255,https://www.zillow.com/homedetails/5319-Estrade-Dr-San-Jose-CA-95118/19757550_zpid/,Sold
"1425 Bouret Dr, San Jose, CA 95118",95118,1140000.0,Sold 09/21/2018,1963,5876.0,SINGLE_FAMILY,3495,859850.0,4,3.0,1888,37.254039,-121.891148,https://www.zillow.com/homedetails/1425-Bouret-Dr-San-Jose-CA-95118/19758557_zpid/,Sold
"3130 Ensalmo Ave, San Jose, CA 95118",95118,1050000.0,Sold 09/21/2018,1953,5109.0,SINGLE_FAMILY,3490,75685.0,4,2.0,1140,37.269472,-121.904024,https://www.zillow.com/homedetails/3130-Ensalmo-Ave-San-Jose-CA-95118/19693681_zpid/,Sold
"1422 Ridgewood Dr, San Jose, CA 95118",95118,1130000.0,Sold 09/19/2018,1960,6264.0,SINGLE_FAMILY,3430,562295.0,3,2.0,1080,37.247137,-121.890411,https://www.zillow.com/homedetails/1422-Ridgewood-Dr-San-Jose-CA-95118/19757371_zpid/,Sold
"3498 Buckingham Dr, San Jose, CA 95118",95118,1210000.0,Sold 09/19/2018,1960,7350.0,SINGLE_FAMILY,3995,344151.0,4,2.0,2047,37.270787,-121.883557,https://www.zillow.com/homedetails/3498-Buckingham-Dr-San-Jose-CA-95118/19696811_zpid/,Sold
"5511 Yale Dr, San Jose, CA 95118",95118,1155000.0,Sold 09/19/2018,1958,5670.0,SINGLE_FAMILY,3500,571149.0,3,2.0,1185,37.242287,-121.89538,https://www.zillow.com/homedetails/5511-Yale-Dr-San-Jose-CA-95118/19755000_zpid/,Sold
"1528 San Andreas Ave, San Jose, CA 95118",95118,995000.0,Sold 09/18/2018,1954,5845.0,SINGLE_FAMILY,3359,61884.0,3,1.0,1136,37.271907,-121.897768,https://www.zillow.com/homedetails/1528-San-Andreas-Ave-San-Jose-CA-95118/19693493_zpid/,Sold
"1521 Santa Monica Ave, San Jose, CA 95118",95118,1100000.0,Sold 09/13/2018,1954,6019.0,SINGLE_FAMILY,3550,636179.0,3,2.0,1468,37.271092,-121.896999,https://www.zillow.com/homedetails/1521-Santa-Monica-Ave-San-Jose-CA-95118/19693433_zpid/,Sold
"1588 Hillsdale Ave, San Jose, CA 95118",95118,1175000.0,Sold 09/12/2018,1962,6795.0,SINGLE_FAMILY,4000,87461.0,4,2.5,1890,37.268426,-121.901687,https://www.zillow.com/homedetails/1588-Hillsdale-Ave-San-Jose-CA-95118/19694730_zpid/,Sold
"1578 Hallbrook Dr, San Jose, CA 95118",95118,1130000.0,Sold 09/12/2018,1961,6054.0,SINGLE_FAMILY,3540,674497.0,3,2.0,1316,37.260414,-121.899475,https://www.zillow.com/homedetails/1578-Hallbrook-Dr-San-Jose-CA-95118/19697951_zpid/,Sold
"1517 Glencrest Dr, San Jose, CA 95118",95118,1200000.0,Sold 09/12/2018,1962,5976.0,SINGLE_FAMILY,3975,796420.0,4,2.0,1910,37.263778,-121.895781,https://www.zillow.com/homedetails/1517-Glencrest-Dr-San-Jose-CA-95118/19697931_zpid/,Sold
"1427 Kimberly Dr, San Jose, CA 95118",95118,1050000.0,Sold 09/10/2018,1959,6899.0,SINGLE_FAMILY,3550,63302.0,3,2.0,1280,37.268682,-121.888666,https://www.zillow.com/homedetails/1427-Kimberly-Dr-San-Jose-CA-95118/19697034_zpid/,Sold
"5748 Croydon Ave, San Jose, CA 95118",95118,1265000.0,Sold 09/10/2018,1961,6099.0,SINGLE_FAMILY,3600,736114.0,3,2.0,1440,37.243986,-121.881388,https://www.zillow.com/homedetails/5748-Croydon-Ave-San-Jose-CA-95118/19755753_zpid/,Sold
"1539 San Andreas Ave, San Jose, CA 95118",95118,1100000.0,Sold 09/07/2018,1954,6616.0,SINGLE_FAMILY,3600,727219.0,4,2.0,1634,37.272101,-121.898729,https://www.zillow.com/homedetails/1539-San-Andreas-Ave-San-Jose-CA-95118/19693499_zpid/,Sold
"1392 Searcy Dr, San Jose, CA 95118",95118,1086000.0,Sold 09/06/2018,1962,6059.0,SINGLE_FAMILY,3800,887564.0,3,2.0,1792,37.261379,-121.887768,https://www.zillow.com/homedetails/1392-Searcy-Dr-San-Jose-CA-95118/19698456_zpid/,Sold
"5584 Dwight Ave, San Jose, CA 95118",95118,1199000.0,Sold 09/05/2018,1961,6202.0,SINGLE_FAMILY,3600,568505.0,4,2.0,1392,37.237801,-121.899808,https://www.zillow.com/homedetails/5584-Dwight-Ave-San-Jose-CA-95118/19754825_zpid/,Sold
"5302 Estrade Dr, San Jose, CA 95118",95118,1180000.0,Sold 09/05/2018,1959,6033.0,SINGLE_FAMILY,3600,608841.0,3,2.0,1437,37.247019,-121.89504,https://www.zillow.com/homedetails/5302-Estrade-Dr-San-Jose-CA-95118/19757529_zpid/,Sold
"4143 Malvini Dr, San Jose, CA 95118",95118,1449000.0,Video Walkthrough,1965,5993.0,SINGLE_FAMILY,4300,133268.0,4,3.0,2154,37.264013,-121.888493,https://www.zillow.com/homedetails/4143-Malvini-Dr-San-Jose-CA-95118/19697678_zpid/,Sold
"1510 Santa Monica Ave, San Jose, CA 95118",95118,1188000.0,Sold 08/31/2018,1954,6510.0,SINGLE_FAMILY,3490,580372.0,3,2.0,1144,37.270854,-121.896186,https://www.zillow.com/homedetails/1510-Santa-Monica-Ave-San-Jose-CA-95118/19693420_zpid/,Sold
"1209 Lynhurst Way, San Jose, CA 95118",95118,303000.0,Sold 08/31/2018,1966,5900.0,SINGLE_FAMILY,3600,71011.0,3,2.0,1475,37.265303,-121.881513,https://www.zillow.com/homedetails/1209-Lynhurst-Way-San-Jose-CA-95118/19698969_zpid/,Sold
"1538 San Andreas Ave, San Jose, CA 95118",95118,1590000.0,Sold 08/30/2018,1954,5928.0,SINGLE_FAMILY,4475,1105000.0,3,3.0,2368,37.271693,-121.898547,https://www.zillow.com/homedetails/1538-San-Andreas-Ave-San-Jose-CA-95118/19693489_zpid/,Sold
"1539 Hallbrook Dr, San Jose, CA 95118",95118,1600000.0,Sold 08/29/2018,1961,6028.0,SINGLE_FAMILY,4400,1362928.0,4,3.0,2006,37.261602,-121.896845,https://www.zillow.com/homedetails/1539-Hallbrook-Dr-San-Jose-CA-95118/19697856_zpid/,Sold
"1360 Branham Ln UNIT 2, San Jose, CA 95118",95118,505000.0,Sold 08/28/2018,1970,436.0,CONDO,2500,300388.0,2,1.0,903,37.259922,-121.887146,https://www.zillow.com/homedetails/1360-Branham-Ln-UNIT-2-San-Jose-CA-95118/19759645_zpid/,Sold
"5565 Russo Dr, San Jose, CA 95118",95118,595000.0,Sold 08/27/2018,1982,1014.0,CONDO,2800,420172.0,2,2.0,1020,37.25012,-121.879896,https://www.zillow.com/homedetails/5565-Russo-Dr-San-Jose-CA-95118/19757012_zpid/,Sold
"3967 Malvini Dr, San Jose, CA 95118",95118,1260000.0,Sold 08/27/2018,1965,5980.0,SINGLE_FAMILY,3728,837522.0,3,2.0,1418,37.265186,-121.88897,https://www.zillow.com/homedetails/3967-Malvini-Dr-San-Jose-CA-95118/19697670_zpid/,Sold
"5148 Durango Ct, San Jose, CA 95118",95118,1410000.0,Sold 08/27/2018,1967,8258.0,SINGLE_FAMILY,4300,112438.0,5,3.0,2318,37.251208,-121.895203,https://www.zillow.com/homedetails/5148-Durango-Ct-San-Jose-CA-95118/19759002_zpid/,Sold
"1214 Rodney Dr, San Jose, CA 95118",95118,1350000.0,Sold 08/27/2018,1957,9121.0,SINGLE_FAMILY,3700,786574.0,4,2.0,1685,37.268542,-121.880775,https://www.zillow.com/homedetails/1214-Rodney-Dr-San-Jose-CA-95118/19697507_zpid/,Sold
"1362 Shawn Dr UNIT 3, San Jose, CA 95118",95118,499956.0,Sold 08/27/2018,1970,436.0,CONDO,2500,113308.0,2,1.0,903,37.258923,-121.887205,https://www.zillow.com/homedetails/1362-Shawn-Dr-UNIT-3-San-Jose-CA-95118/19759551_zpid/,Sold
"5159 Amelia Dr, San Jose, CA 95118",95118,1150000.0,Sold 08/27/2018,1961,6825.0,SINGLE_FAMILY,3500,711919.0,4,2.0,1158,37.249635,-121.899842,https://www.zillow.com/homedetails/5159-Amelia-Dr-San-Jose-CA-95118/19758288_zpid/,Sold
"4960 Paseo Tranquillo, San Jose, CA 95118",95118,136500.0,Sold 08/27/2018,1981,1512.0,CONDO,3495,339526.0,3,2.0,1395,37.251549,-121.90347,https://www.zillow.com/homedetails/4960-Paseo-Tranquillo-San-Jose-CA-95118/19760014_zpid/,Sold
"3522 Cherry Ave, San Jose, CA 95118",95118,2360000.0,Sold 08/27/2018,1958,6969.0,SINGLE_FAMILY,3850,67764.0,4,2.0,1806,37.269402,-121.887678,https://www.zillow.com/homedetails/3522-Cherry-Ave-San-Jose-CA-95118/19697014_zpid/,Sold
"4845 Pine Forest Pl, San Jose, CA 95118",95118,750000.0,Sold 08/24/2018,1986,1093.0,CONDO,2800,596788.0,2,2.0,1026,37.251493,-121.904698,https://www.zillow.com/homedetails/4845-Pine-Forest-Pl-San-Jose-CA-95118/19760306_zpid/,Sold
"5304 Dellwood Way, San Jose, CA 95118",95118,1040000.0,Sold 08/24/2018,1960,6224.0,SINGLE_FAMILY,3500,178383.0,3,2.0,1304,37.249241,-121.888561,https://www.zillow.com/homedetails/5304-Dellwood-Way-San-Jose-CA-95118/19757064_zpid/,Sold
"1256 Sierra Mar Dr, San Jose, CA 95118",95118,1180000.0,Sold 08/24/2018,1956,6174.0,SINGLE_FAMILY,3500,430639.0,4,2.0,1844,37.275116,-121.884514,https://www.zillow.com/homedetails/1256-Sierra-Mar-Dr-San-Jose-CA-95118/19696569_zpid/,Sold
"1436 Hauck Dr, San Jose, CA 95118",95118,1015000.0,Sold 08/24/2018,1959,6000.0,SINGLE_FAMILY,3500,618526.0,3,2.0,1202,37.269475,-121.889761,https://www.zillow.com/homedetails/1436-Hauck-Dr-San-Jose-CA-95118/19697190_zpid/,Sold
"1307 Antwerp Ln, San Jose, CA 95118",95118,1250000.0,Sold 08/22/2018,1964,6180.0,SINGLE_FAMILY,3495,328489.0,3,2.0,1176,37.242094,-121.88565,https://www.zillow.com/homedetails/1307-Antwerp-Ln-San-Jose-CA-95118/19755471_zpid/,Sold
"1552 San Andreas Ave, San Jose, CA 95118",95118,1100000.0,Sold 08/21/2018,1955,6969.0,SINGLE_FAMILY,3650,66958.0,5,2.0,1925,37.271368,-121.899665,https://www.zillow.com/homedetails/1552-San-Andreas-Ave-San-Jose-CA-95118/19693484_zpid/,Sold
"1529 Kooser Rd, San Jose, CA 95118",95118,1258000.0,Sold 08/20/2018,1958,6534.0,SINGLE_FAMILY,3650,816000.0,3,2.0,1272,37.243488,-121.897122,https://www.zillow.com/homedetails/1529-Kooser-Rd-San-Jose-CA-95118/19757753_zpid/,Sold
"1458 Kimberly Dr, San Jose, CA 95118",95118,1265000.0,Sold 08/17/2018,1961,5814.0,SINGLE_FAMILY,3700,881980.0,3,2.0,1284,37.267722,-121.89051,https://www.zillow.com/homedetails/1458-Kimberly-Dr-San-Jose-CA-95118/19697293_zpid/,Sold
"4538 Lahaina Way, San Jose, CA 95118",95118,1525000.0,Sold 08/17/2018,1972,6194.0,SINGLE_FAMILY,4300,458034.0,4,3.0,2034,37.258862,-121.893026,https://www.zillow.com/homedetails/4538-Lahaina-Way-San-Jose-CA-95118/19699028_zpid/,Sold
"1568 Marietta Dr, San Jose, CA 95118",95118,1310000.0,Sold 08/17/2018,1960,6442.0,SINGLE_FAMILY,3950,834046.0,3,2.0,1585,37.247843,-121.899831,https://www.zillow.com/homedetails/1568-Marietta-Dr-San-Jose-CA-95118/19758140_zpid/,Sold
"5079 Durango Ct, San Jose, CA 95118",95118,1520000.0,Sold 08/17/2018,1967,10018.0,SINGLE_FAMILY,4215,97818.0,4,2.5,1744,37.251793,-121.895497,https://www.zillow.com/homedetails/5079-Durango-Ct-San-Jose-CA-95118/19758996_zpid/,Sold
"1557 San Andreas Ave, San Jose, CA 95118",95118,1115000.0,Sold 08/16/2018,1955,7174.0,SINGLE_FAMILY,3500,623948.0,3,2.0,1143,37.271713,-121.900089,https://www.zillow.com/homedetails/1557-San-Andreas-Ave-San-Jose-CA-95118/19693505_zpid/,Sold
"1531 Hillsdale Ave, San Jose, CA 95118",95118,838000.0,Sold 08/15/2018,1954,6930.0,SINGLE_FAMILY,3750,293420.0,4,2.0,1675,37.270217,-121.897482,https://www.zillow.com/homedetails/1531-Hillsdale-Ave-San-Jose-CA-95118/19693412_zpid/,Sold
"1584 Princeton Dr, San Jose, CA 95118",95118,1137500.0,Sold 08/15/2018,1961,6150.0,SINGLE_FAMILY,3600,716448.0,3,2.0,1211,37.23986,-121.90062,https://www.zillow.com/homedetails/1584-Princeton-Dr-San-Jose-CA-95118/19754839_zpid/,Sold
"5286 Dellwood Way, San Jose, CA 95118",95118,1295000.0,Sold 08/14/2018,1960,6098.0,SINGLE_FAMILY,3950,923518.0,4,3.0,1847,37.249711,-121.888756,https://www.zillow.com/homedetails/5286-Dellwood-Way-San-Jose-CA-95118/19757066_zpid/,Sold
"1382 Branham Ln UNIT 2, San Jose, CA 95118",95118,540000.0,Sold 08/10/2018,1970,436.0,CONDO,2500,187020.0,2,1.0,903,37.259547,-121.888665,https://www.zillow.com/homedetails/1382-Branham-Ln-UNIT-2-San-Jose-CA-95118/19759614_zpid/,Sold
"1456 Branham Ln, San Jose, CA 95118",95118,960000.0,Sold 08/10/2018,1965,6098.0,SINGLE_FAMILY,3500,64116.0,3,2.0,1232,37.258133,-121.892187,https://www.zillow.com/homedetails/1456-Branham-Ln-San-Jose-CA-95118/19758390_zpid/,Sold
"1390 Annapolis Way, San Jose, CA 95118",95118,1105000.0,Sold 08/08/2018,1963,6107.0,SINGLE_FAMILY,3600,715726.0,4,2.0,1408,37.253331,-121.887522,https://www.zillow.com/homedetails/1390-Annapolis-Way-San-Jose-CA-95118/19758650_zpid/,Sold
"1298 Bouret Dr UNIT 4, San Jose, CA 95118",95118,540000.0,Sold 08/07/2018,1970,435.0,CONDO,2395,280428.0,2,1.0,798,37.257203,-121.88601,https://www.zillow.com/homedetails/1298-Bouret-Dr-UNIT-4-San-Jose-CA-95118/19759413_zpid/,Sold
"1590 Willowmont Ave, San Jose, CA 95118",95118,1381000.0,Sold 08/06/2018,1958,6381.0,SINGLE_FAMILY,3990,105124.0,3,3.0,1426,37.265532,-121.901532,https://www.zillow.com/homedetails/1590-Willowmont-Ave-San-Jose-CA-95118/19695176_zpid/,Sold
"1482 Luning Dr, San Jose, CA 95118",95118,1580000.0,Sold 08/03/2018,1967,6370.0,SINGLE_FAMILY,4600,153343.0,5,4.0,2264,37.253798,-121.89525,https://www.zillow.com/homedetails/1482-Luning-Dr-San-Jose-CA-95118/19759073_zpid/,Sold
"1439 Merrywood Dr, San Jose, CA 95118",95118,1400000.0,Sold 08/02/2018,1960,6080.0,SINGLE_FAMILY,3700,427547.0,4,3.0,1775,37.249675,-121.891554,https://www.zillow.com/homedetails/1439-Merrywood-Dr-San-Jose-CA-95118/19757236_zpid/,Sold
"1497 Portobelo Dr, San Jose, CA 95118",95118,1235000.0,Sold 08/02/2018,1967,7035.0,SINGLE_FAMILY,3600,776352.0,3,2.0,1579,37.254065,-121.896958,https://www.zillow.com/homedetails/1497-Portobelo-Dr-San-Jose-CA-95118/19759218_zpid/,Sold
"5342 Dent Ave, San Jose, CA 95118",95118,1275000.0,Sold 07/31/2018,1959,5941.0,SINGLE_FAMILY,3800,837113.0,3,2.0,1300,37.245697,-121.895164,https://www.zillow.com/homedetails/5342-Dent-Ave-San-Jose-CA-95118/19757561_zpid/,Sold
"1418 Blackstone Ave, San Jose, CA 95118",95118,1265000.0,Sold 07/31/2018,1971,6000.0,SINGLE_FAMILY,3695,811255.0,3,2.0,1650,37.272871,-121.890201,https://www.zillow.com/homedetails/1418-Blackstone-Ave-San-Jose-CA-95118/19696339_zpid/,Sold
"5416 Clovercrest Dr, San Jose, CA 95118",95118,1155000.0,Sold 07/31/2018,1961,7108.0,SINGLE_FAMILY,3575,540966.0,3,2.0,1220,37.251706,-121.881033,https://www.zillow.com/homedetails/5416-Clovercrest-Dr-San-Jose-CA-95118/19756937_zpid/,Sold
"1437 Hauck Dr, San Jose, CA 95118",95118,274545.0,Sold 07/31/2018,1959,6300.0,SINGLE_FAMILY,3500,62287.0,3,2.0,1200,37.26984,-121.890143,https://www.zillow.com/homedetails/1437-Hauck-Dr-San-Jose-CA-95118/19697124_zpid/,Sold
"1524 Hallbrook Dr, San Jose, CA 95118",95118,1175000.0,Sold 07/30/2018,1961,5998.0,SINGLE_FAMILY,3500,61065.0,3,2.0,1293,37.261589,-121.895178,https://www.zillow.com/homedetails/1524-Hallbrook-Dr-San-Jose-CA-95118/19697973_zpid/,Sold
"3976 Normandale Dr, San Jose, CA 95118",95118,1235000.0,Sold 07/30/2018,1964,5937.0,SINGLE_FAMILY,3500,601624.0,3,2.0,1400,37.265095,-121.889321,https://www.zillow.com/homedetails/3976-Normandale-Dr-San-Jose-CA-95118/19697710_zpid/,Sold
"5003 Joseph Ln, San Jose, CA 95118",95118,1120000.0,Sold 07/30/2018,1963,11103.0,SINGLE_FAMILY,3500,73246.0,3,2.0,1458,37.249646,-121.904781,https://www.zillow.com/homedetails/5003-Joseph-Ln-San-Jose-CA-95118/19758113_zpid/,Sold
"1568 Ilikai Ave, San Jose, CA 95118",95118,1653000.0,Sold 07/27/2018,1975,6255.0,SINGLE_FAMILY,4495,706496.0,4,2.0,1956,37.257808,-121.898758,https://www.zillow.com/homedetails/1568-Ilikai-Ave-San-Jose-CA-95118/19699330_zpid/,Sold
"5607 Bluegrass Ln, San Jose, CA 95118",95118,915000.0,Sold 07/26/2018,1977,2082.0,TOWNHOUSE,3200,481671.0,2,2.0,1209,37.245038,-121.887382,https://www.zillow.com/homedetails/5607-Bluegrass-Ln-San-Jose-CA-95118/19756073_zpid/,Sold
"5121 Yucatan Way, San Jose, CA 95118",95118,1330000.0,Video Walkthrough,1967,6006.0,SINGLE_FAMILY,3945,163005.0,4,2.0,1744,37.251619,-121.892974,https://www.zillow.com/homedetails/5121-Yucatan-Way-San-Jose-CA-95118/19759035_zpid/,Sold
"1400 Searcy Dr, San Jose, CA 95118",95118,1140000.0,Sold 07/24/2018,1962,6060.0,SINGLE_FAMILY,3500,884078.0,3,1.5,1180,37.261276,-121.88816,https://www.zillow.com/homedetails/1400-Searcy-Dr-San-Jose-CA-95118/19698454_zpid/,Sold
"1507 Willowmont Ave, San Jose, CA 95118",95118,1500000.0,Sold 07/23/2018,1959,7405.0,SINGLE_FAMILY,4300,1050000.0,4,3.0,1958,37.267935,-121.894418,https://www.zillow.com/homedetails/1507-Willowmont-Ave-San-Jose-CA-95118/19694918_zpid/,Sold
"4106 Malvini Dr, San Jose, CA 95118",95118,1170000.0,Sold 07/23/2018,1965,6015.0,SINGLE_FAMILY,3500,142085.0,3,2.0,1511,37.264444,-121.888065,https://www.zillow.com/homedetails/4106-Malvini-Dr-San-Jose-CA-95118/19697601_zpid/,Sold
"3767 Almaden Rd, San Jose, CA 95118",95118,1520000.0,Sold 07/23/2018,1958,10384.0,MULTI_FAMILY,3500,850410.0,0,,2394,37.269504,-121.87916,https://www.zillow.com/homedetails/3767-Almaden-Rd-San-Jose-CA-95118/19697474_zpid/,Sold
"1119 Odyssey Ct, San Jose, CA 95118",95118,850000.0,Sold 07/20/2018,1983,1442.0,TOWNHOUSE,3400,543238.0,3,3.0,1693,37.257879,-121.878574,https://www.zillow.com/homedetails/1119-Odyssey-Ct-San-Jose-CA-95118/19760049_zpid/,Sold
"4085 Ross Park Dr, San Jose, CA 95118",95118,1300000.0,Sold 07/20/2018,1964,6063.0,SINGLE_FAMILY,3600,881980.0,3,2.0,1570,37.264127,-121.891551,https://www.zillow.com/homedetails/4085-Ross-Park-Dr-San-Jose-CA-95118/19697726_zpid/,Sold
"5047 Wayland Ave, San Jose, CA 95118",95118,1160000.0,Sold 07/17/2018,1965,5902.0,SINGLE_FAMILY,3600,265696.0,4,2.0,1408,37.255048,-121.882997,https://www.zillow.com/homedetails/5047-Wayland-Ave-San-Jose-CA-95118/19758862_zpid/,Sold
"5294 Gatewood Ln, San Jose, CA 95118",95118,1150000.0,Sold 07/13/2018,1960,6883.0,SINGLE_FAMILY,3500,704403.0,3,2.0,1095,37.245505,-121.897446,https://www.zillow.com/homedetails/5294-Gatewood-Ln-San-Jose-CA-95118/19757598_zpid/,Sold
"5592 Le Fevre Dr, San Jose, CA 95118",95118,1410000.0,Sold 07/13/2018,1994,3036.0,SINGLE_FAMILY,3950,1249750.0,3,3.0,1874,37.239166,-121.893827,https://www.zillow.com/homedetails/5592-Le-Fevre-Dr-San-Jose-CA-95118/19756761_zpid/,Sold
"1527 Princeton Dr, San Jose, CA 95118",95118,1140000.0,Sold 07/11/2018,1958,6195.0,SINGLE_FAMILY,3495,543243.0,3,2.0,1185,37.242835,-121.89646,https://www.zillow.com/homedetails/1527-Princeton-Dr-San-Jose-CA-95118/19755087_zpid/,Sold
"1489 Hillsdale Ave, San Jose, CA 95118",95118,1000000.0,Sold 07/11/2018,1960,6926.0,SINGLE_FAMILY,3550,422309.0,4,2.5,1503,37.271484,-121.894331,https://www.zillow.com/homedetails/1489-Hillsdale-Ave-San-Jose-CA-95118/19696164_zpid/,Sold
"1590 Singletree Way, San Jose, CA 95118",95118,835000.0,Sold 07/11/2018,1986,871.0,CONDO,3040,291625.0,2,2.0,1281,37.234018,-121.902791,https://www.zillow.com/homedetails/1590-Singletree-Way-San-Jose-CA-95118/19754625_zpid/,Sold
"4098 Duggan Dr, San Jose, CA 95118",95118,1250000.0,Sold 07/10/2018,1961,7457.0,SINGLE_FAMILY,3615,62077.0,3,2.0,1579,37.261568,-121.898559,https://www.zillow.com/homedetails/4098-Duggan-Dr-San-Jose-CA-95118/19697988_zpid/,Sold
"1334 Foxworthy Ave, San Jose, CA 95118",95118,1260000.0,Sold 07/10/2018,1957,6102.0,SINGLE_FAMILY,3600,106447.0,3,2.0,1591,37.275753,-121.887764,https://www.zillow.com/homedetails/1334-Foxworthy-Ave-San-Jose-CA-95118/19696393_zpid/,Sold
"1106 Claycomb Ct, San Jose, CA 95118",95118,859000.0,Video Walkthrough,1983,1440.0,CONDO,3450,702301.0,3,2.5,1693,37.258178,-121.878434,https://www.zillow.com/homedetails/1106-Claycomb-Ct-San-Jose-CA-95118/19760055_zpid/,Sold
"5741 Seifert Ave, San Jose, CA 95118",95118,1250000.0,Sold 07/09/2018,1965,5919.0,SINGLE_FAMILY,3400,89696.0,3,2.0,1176,37.243135,-121.883681,https://www.zillow.com/homedetails/5741-Seifert-Ave-San-Jose-CA-95118/19755430_zpid/,Sold
"5561 Harvard Dr, San Jose, CA 95118",95118,1295000.0,Sold 07/09/2018,1959,6698.0,SINGLE_FAMILY,3650,432836.0,3,2.0,1189,37.241213,-121.895611,https://www.zillow.com/homedetails/5561-Harvard-Dr-San-Jose-CA-95118/19754968_zpid/,Sold
"3433 Jarvis Ave, San Jose, CA 95118",95118,1200000.0,Sold 07/06/2018,1959,6821.0,SINGLE_FAMILY,3600,334045.0,3,2.0,1647,37.268469,-121.89431,https://www.zillow.com/homedetails/3433-Jarvis-Ave-San-Jose-CA-95118/19694914_zpid/,Sold
"1321 Coniston Ct, San Jose, CA 95118",95118,1490000.0,Sold 07/03/2018,1979,8542.0,MULTI_FAMILY,3250,326864.0,0,,3141,37.247853,-121.886232,https://www.zillow.com/homedetails/1321-Coniston-Ct-San-Jose-CA-95118/153445332_zpid/,Sold
"1638 Branham Ln UNIT F, San Jose, CA 95118",95118,900000.0,Sold 07/03/2018,1977,1280.0,CONDO,3200,624240.0,2,1.5,1134,37.251991,-121.903038,https://www.zillow.com/homedetails/1638-Branham-Ln-UNIT-F-San-Jose-CA-95118/19759898_zpid/,Sold
"1534 Willowmont Ave, San Jose, CA 95118",95118,1100000.0,Sold 07/03/2018,1958,6163.0,SINGLE_FAMILY,3350,754290.0,3,2.0,1170,37.266949,-121.896377,https://www.zillow.com/homedetails/1534-Willowmont-Ave-San-Jose-CA-95118/19694993_zpid/,Sold
"1315 Scossa Ave UNIT 3, San Jose, CA 95118",95118,535000.0,Sold 07/03/2018,1970,436.0,CONDO,2500,417954.0,2,1.0,903,37.257706,-121.886968,https://www.zillow.com/homedetails/1315-Scossa-Ave-UNIT-3-San-Jose-CA-95118/19759377_zpid/,Sold
"4484 George Oaks Dr, San Jose, CA 95118",95118,1290000.0,Sold 07/02/2018,1983,6185.0,SINGLE_FAMILY,3620,289168.0,3,2.0,1457,37.262416,-121.880861,https://www.zillow.com/homedetails/4484-George-Oaks-Dr-San-Jose-CA-95118/19698763_zpid/,Sold
"1395 Courtyard Dr, San Jose, CA 95118",95118,1250000.0,Sold 06/29/2018,1973,5052.0,SINGLE_FAMILY,3700,410226.0,3,2.0,1522,37.262556,-121.888227,https://www.zillow.com/homedetails/1395-Courtyard-Dr-San-Jose-CA-95118/19698549_zpid/,Sold
"1450 Quartz Way, San Jose, CA 95118",95118,1305000.0,Sold 06/29/2018,1961,5823.0,SINGLE_FAMILY,3665,595238.0,3,2.0,1198,37.267029,-121.890225,https://www.zillow.com/homedetails/1450-Quartz-Way-San-Jose-CA-95118/19697311_zpid/,Sold
"5212 Meridian Ave, San Jose, CA 95118",95118,980000.0,Sold 06/28/2018,1980,1890.0,CONDO,3500,518558.0,3,3.0,1748,37.250237,-121.894127,https://www.zillow.com/homedetails/5212-Meridian-Ave-San-Jose-CA-95118/19759929_zpid/,Sold
"5026 Howes Ln, San Jose, CA 95118",95118,1225000.0,Sold 06/28/2018,1963,10044.0,SINGLE_FAMILY,3500,73246.0,3,2.0,1458,37.2492,-121.905008,https://www.zillow.com/homedetails/5026-Howes-Ln-San-Jose-CA-95118/19758111_zpid/,Sold
"4221 Corte De Tebaldi, San Jose, CA 95118",95118,1600000.0,Sold 06/28/2018,1975,10785.0,SINGLE_FAMILY,4200,218057.0,3,2.0,1614,37.259641,-121.900533,https://www.zillow.com/homedetails/4221-Corte-De-Tebaldi-San-Jose-CA-95118/19699248_zpid/,Sold
"4970 Cherry Ave UNIT 206, San Jose, CA 95118",95118,450000.0,Sold 06/27/2018,1979,635.0,CONDO,2400,339412.0,1,1.0,675,37.258383,-121.87966,https://www.zillow.com/homedetails/4970-Cherry-Ave-UNIT-206-San-Jose-CA-95118/82949243_zpid/,Sold
"1376 Branham Ln UNIT 4, San Jose, CA 95118",95118,532000.0,Sold 06/26/2018,1970,7080.0,CONDO,2495,418149.0,2,1.0,798,37.259618,-121.888309,https://www.zillow.com/homedetails/1376-Branham-Ln-UNIT-4-San-Jose-CA-95118/19759624_zpid/,Sold
"1467 Glacier Dr, San Jose, CA 95118",95118,1175000.0,Sold 06/25/2018,1964,6259.0,SINGLE_FAMILY,3540,133558.0,3,2.0,1346,37.26257,-121.892327,https://www.zillow.com/homedetails/1467-Glacier-Dr-San-Jose-CA-95118/19697792_zpid/,Sold
"5264 Dent Ave, San Jose, CA 95118",95118,1300000.0,Sold 06/22/2018,1959,6890.0,SINGLE_FAMILY,3600,62490.0,3,2.0,1212,37.247456,-121.896427,https://www.zillow.com/homedetails/5264-Dent-Ave-San-Jose-CA-95118/19757574_zpid/,Sold
"1416 Ridgewood Dr, San Jose, CA 95118",95118,1270000.0,Sold 06/22/2018,1960,6468.0,SINGLE_FAMILY,3600,1066410.0,3,2.0,1556,37.247191,-121.890219,https://www.zillow.com/homedetails/1416-Ridgewood-Dr-San-Jose-CA-95118/19757372_zpid/,Sold
"5109 Yucatan Way, San Jose, CA 95118",95118,1551000.0,Sold 06/22/2018,1968,6150.0,SINGLE_FAMILY,4475,762452.0,4,3.0,2331,37.251777,-121.893035,https://www.zillow.com/homedetails/5109-Yucatan-Way-San-Jose-CA-95118/19759034_zpid/,Sold
"4962 Paseo Tranquillo, San Jose, CA 95118",95118,887500.0,Sold 06/22/2018,1981,1398.0,SINGLE_FAMILY,3490,431818.0,3,2.0,1395,37.251512,-121.903539,https://www.zillow.com/homedetails/4962-Paseo-Tranquillo-San-Jose-CA-95118/19760013_zpid/,Sold
"1306 Shawn Dr UNIT 2, San Jose, CA 95118",95118,550000.0,Sold 06/21/2018,1970,436.0,CONDO,2500,221210.0,2,1.0,903,37.259569,-121.885167,https://www.zillow.com/homedetails/1306-Shawn-Dr-UNIT-2-San-Jose-CA-95118/19759590_zpid/,Sold
"1391 Melwood Dr, San Jose, CA 95118",95118,1000000.0,Sold 06/21/2018,1960,6263.0,SINGLE_FAMILY,3300,469677.0,3,2.0,1080,37.249445,-121.889391,https://www.zillow.com/homedetails/1391-Melwood-Dr-San-Jose-CA-95118/19757267_zpid/,Sold
"1394 Oslo Ln, San Jose, CA 95118",95118,1244000.0,Sold 06/21/2018,1962,6603.0,SINGLE_FAMILY,3550,326676.0,3,2.0,1288,37.238094,-121.888438,https://www.zillow.com/homedetails/1394-Oslo-Ln-San-Jose-CA-95118/19755350_zpid/,Sold
