address,postal_code,price,dateSold,yearBuilt,lotSize,homeType,rentZestimate,taxAssessedValue,bedrooms,bathrooms,area,latitude,longitude,url,title
"2014 Wizard Ct, San Jose, CA 95131",95131,1180000.0,Sold 07/11/2019,1971,5998.0,SINGLE_FAMILY,3600,699245.0,3,2.0,1740,37.386157,-121.873369,https://www.zillow.com/homedetails/2014-Wizard-Ct-San-Jose-CA-95131/19565259_zpid/,Sold
"2151 Oakland Rd SPC 559, San Jose, CA 95131",95131,210000.0,Sold 07/09/2019,1977,-1.0,MANUFACTURED,3275,,2,2.0,1344,37.40036,-121.906739,https://www.zillow.com/homedetails/2151-Oakland-Rd-SPC-559-San-Jose-CA-95131/2104331010_zpid/,Sold
"1633 Shore Dr, San Jose, CA 95131",95131,1370000.0,Sold 07/05/2019,2014,3306.0,SINGLE_FAMILY,4200,948082.0,3,3.0,2098,37.373617,-121.879451,https://www.zillow.com/homedetails/1633-Shore-Dr-San-Jose-CA-95131/122249375_zpid/,Sold
"1702 Fan St, San Jose, CA 95131",95131,1040000.0,Sold 07/05/2019,1989,2548.0,TOWNHOUSE,3395,541128.0,3,3.0,1666,37.37461,-121.876286,https://www.zillow.com/homedetails/1702-Fan-St-San-Jose-CA-95131/19561014_zpid/,Sold
"2211 Ladymuir Ct, San Jose, CA 95131",95131,1200000.0,Sold 06/27/2019,1972,8686.0,SINGLE_FAMILY,3700,647540.0,3,2.0,1646,37.392697,-121.874106,https://www.zillow.com/homedetails/2211-Ladymuir-Ct-San-Jose-CA-95131/19564976_zpid/,Sold
"2518 Autumnvale Ave, San Jose, CA 95131",95131,850000.0,Sold 06/27/2019,2008,1670.0,CONDO,3495,580660.0,3,3.0,1536,37.404426,-121.884615,https://www.zillow.com/homedetails/2518-Autumnvale-Ave-San-Jose-CA-95131/89475406_zpid/,Sold
"1392 Rue Avati, San Jose, CA 95131",95131,1108000.0,Sold 06/27/2019,1974,5662.0,SINGLE_FAMILY,3600,753588.0,4,2.0,1480,37.382371,-121.877889,https://www.zillow.com/homedetails/1392-Rue-Avati-San-Jose-CA-95131/19565767_zpid/,Sold
"1824 Camino Leonor, San Jose, CA 95131",95131,800000.0,Sold 06/26/2019,2007,1226.0,SINGLE_FAMILY,3300,702414.0,2,2.5,1540,37.390515,-121.889126,https://www.zillow.com/homedetails/1824-Camino-Leonor-San-Jose-CA-95131/82958914_zpid/,Sold
"1700 Martin Jue St, San Jose, CA 95131",95131,1180000.0,Sold 06/26/2019,1988,3023.0,TOWNHOUSE,3900,884340.0,4,3.0,2009,37.375049,-121.876488,https://www.zillow.com/homedetails/1700-Martin-Jue-St-San-Jose-CA-95131/19560991_zpid/,Sold
"2151 Oakland Rd SPC 40, San Jose, CA 95131",95131,317000.0,Sold 06/25/2019,2005,-1.0,MANUFACTURED,4000,,4,2.0,1972,37.40036,-121.906739,https://www.zillow.com/homedetails/2151-Oakland-Rd-SPC-40-San-Jose-CA-95131/2084697469_zpid/,Sold
"1540 Meadow Ridge Cir, San Jose, CA 95131",95131,715000.0,Sold 06/25/2019,1985,436.0,CONDO,2845,236142.0,2,2.0,988,37.381636,-121.883986,https://www.zillow.com/homedetails/1540-Meadow-Ridge-Cir-San-Jose-CA-95131/19560260_zpid/,Sold
"1726 River Birch Dr, San Jose, CA 95131",95131,930000.0,Sold 06/24/2019,1985,3118.0,SINGLE_FAMILY,3400,337229.0,3,3.0,1478,37.373701,-121.874961,https://www.zillow.com/homedetails/1726-River-Birch-Dr-San-Jose-CA-95131/19560446_zpid/,Sold
"1399 Stanton Way, San Jose, CA 95131",95131,1660000.0,Sold 06/21/2019,1993,4155.0,SINGLE_FAMILY,4450,857408.0,5,3.0,2516,37.376956,-121.885073,https://www.zillow.com/homedetails/1399-Stanton-Way-San-Jose-CA-95131/19561315_zpid/,Sold
"1040 Banyan Ct, San Jose, CA 95131",95131,1440000.0,Sold 06/21/2019,2007,5972.0,SINGLE_FAMILY,4250,1118797.0,4,3.0,2150,37.391759,-121.903386,https://www.zillow.com/homedetails/1040-Banyan-Ct-San-Jose-CA-95131/82950515_zpid/,Sold
"1614 Stanwich Rd, San Jose, CA 95131",95131,1100000.0,Sold 06/17/2019,1978,7405.0,SINGLE_FAMILY,3600,130842.0,4,2.0,1234,37.395265,-121.875717,https://www.zillow.com/homedetails/1614-Stanwich-Rd-San-Jose-CA-95131/19562416_zpid/,Sold
"1525 Four Oaks Cir, San Jose, CA 95131",95131,460000.0,Sold 06/17/2019,1986,1307.0,CONDO,2340,153148.0,1,1.0,676,37.391611,-121.872958,https://www.zillow.com/homedetails/1525-Four-Oaks-Cir-San-Jose-CA-95131/19564896_zpid/,Sold
"2151 Oakland Rd SPC 165, San Jose, CA 95131",95131,170000.0,Sold 06/17/2019,1973,-1.0,MANUFACTURED,3500,,3,2.0,1440,37.40036,-121.906739,https://www.zillow.com/homedetails/2151-Oakland-Rd-SPC-165-San-Jose-CA-95131/2146215285_zpid/,Sold
"2170 Stratton Pl, San Jose, CA 95131",95131,961000.0,Sold 06/15/2019,1976,6033.0,SINGLE_FAMILY,3600,555878.0,4,2.0,1234,37.388777,-121.871974,https://www.zillow.com/homedetails/2170-Stratton-Pl-San-Jose-CA-95131/90135172_zpid/,Sold
"1052 Bigleaf Pl #103, San Jose, CA 95131",95131,1085000.0,Sold 06/13/2019,2015,-1.0,CONDO,3500,,2,3.0,1690,37.380433,-121.89735,https://www.zillow.com/homedetails/1052-Bigleaf-Pl-103-San-Jose-CA-95131/2096457661_zpid/,Sold
"1052 Bigleaf Pl UNIT 103, San Jose, CA 95131",95131,1085000.0,Sold 06/13/2019,2015,1632.0,CONDO,3500,746930.0,2,3.0,1690,37.380414,-121.897617,https://www.zillow.com/homedetails/1052-Bigleaf-Pl-UNIT-103-San-Jose-CA-95131/166730701_zpid/,Sold
"1161 Tofts Dr, San Jose, CA 95131",95131,960000.0,Sold 06/11/2019,-1,-1.0,SINGLE_FAMILY,3200,743886.0,,,,37.384031,-121.865908,https://www.zillow.com/homedetails/1161-Tofts-Dr-San-Jose-CA-95131/19564305_zpid/,Sold
"1098 Foxglove Pl, San Jose, CA 95131",95131,1200000.0,Sold 06/11/2019,2015,710.0,TOWNHOUSE,3950,916827.0,4,4.0,1872,37.379575,-121.895896,https://www.zillow.com/homedetails/1098-Foxglove-Pl-San-Jose-CA-95131/166730499_zpid/,Sold
"1784 Rocktree Ct, San Jose, CA 95131",95131,213000.0,Sold 06/07/2019,1973,6316.0,SINGLE_FAMILY,3250,804691.0,3,2.0,1041,37.399241,-121.879192,https://www.zillow.com/homedetails/1784-Rocktree-Ct-San-Jose-CA-95131/19562360_zpid/,Sold
"1354 Tea Rose Cir, San Jose, CA 95131",95131,750000.0,Sold 06/07/2019,1993,435.0,CONDO,2875,622200.0,2,2.0,1006,37.387752,-121.893985,https://www.zillow.com/homedetails/1354-Tea-Rose-Cir-San-Jose-CA-95131/19563569_zpid/,Sold
"1087 Harebell Pl, San Jose, CA 95131",95131,1090000.0,Sold 06/04/2019,2015,644.0,TOWNHOUSE,3500,860975.0,2,4.0,1622,37.379191,-121.89609,https://www.zillow.com/homedetails/1087-Harebell-Pl-San-Jose-CA-95131/166731817_zpid/,Sold
"1597 Shore Dr, San Jose, CA 95131",95131,980000.0,Sold 06/04/2019,2014,4235.0,TOWNHOUSE,3800,987106.0,2,2.0,1198,37.373191,-121.88025,https://www.zillow.com/homedetails/1597-Shore-Dr-San-Jose-CA-95131/122249058_zpid/,Sold
"1521 Fairway Green Cir, San Jose, CA 95131",95131,750000.0,Sold 05/31/2019,1988,1842.0,TOWNHOUSE,3000,296843.0,2,2.0,1098,37.377885,-121.884986,https://www.zillow.com/homedetails/1521-Fairway-Green-Cir-San-Jose-CA-95131/19561243_zpid/,Sold
"1075 Eagle Way, San Jose, CA 95131",95131,1210000.0,Sold 05/31/2019,2014,435.0,CONDO,3625,932845.0,3,3.0,1851,37.372164,-121.881146,https://www.zillow.com/homedetails/1075-Eagle-Way-San-Jose-CA-95131/124744394_zpid/,Sold
"1910 Beaufort Ter, San Jose, CA 95131",95131,1130000.0,Sold 05/30/2019,1996,1306.0,TOWNHOUSE,3500,706750.0,3,3.0,1651,37.386686,-121.896172,https://www.zillow.com/homedetails/1910-Beaufort-Ter-San-Jose-CA-95131/19563055_zpid/,Sold
"1578 Shanghai Cir, San Jose, CA 95131",95131,1060000.0,Sold 05/24/2019,1992,2613.0,CONDO,3400,806446.0,3,2.5,1666,37.384055,-121.890856,https://www.zillow.com/homedetails/1578-Shanghai-Cir-San-Jose-CA-95131/19561923_zpid/,Sold
"1027 Giacomo Ln UNIT 7, San Jose, CA 95131",95131,1210000.0,Sold 05/23/2019,2017,-1.0,CONDO,3900,,4,4.0,1847,37.3721,-121.8782,https://www.zillow.com/homedetails/1027-Giacomo-Ln-UNIT-7-San-Jose-CA-95131/2084301921_zpid/,Sold
"1027 Giacomo Ln # 7, San Jose, CA 95131",95131,1210000.0,Sold 05/23/2019,-1,-1.0,CONDO,3695,188411.0,0,,,37.3721,-121.8782,https://www.zillow.com/homedetails/1027-Giacomo-Ln-7-San-Jose-CA-95131/299289906_zpid/,Sold
"1068 Bigleaf Pl UNIT 304, San Jose, CA 95131",95131,1188000.0,Sold 05/22/2019,2016,1365.0,CONDO,3950,902581.0,4,3.0,2147,37.380471,-121.896494,https://www.zillow.com/homedetails/1068-Bigleaf-Pl-UNIT-304-San-Jose-CA-95131/243211662_zpid/,Sold
"1717 Fox Dr, San Jose, CA 95131",95131,54000000.0,Sold 05/21/2019,-1,14810.0,LOT,3295,509796.0,0,,,37.383136,-121.903272,https://www.zillow.com/homedetails/1717-Fox-Dr-San-Jose-CA-95131/153222815_zpid/,Sold
"1711 Parkview Green Cir, San Jose, CA 95131",95131,829000.0,Sold 05/20/2019,1988,1740.0,APARTMENT,3000,250658.0,2,2.0,1228,37.378843,-121.883689,https://www.zillow.com/homedetails/1711-Parkview-Green-Cir-San-Jose-CA-95131/19561560_zpid/,Sold
"1450 Four Oaks Cir, San Jose, CA 95131",95131,675000.0,Sold 05/17/2019,1986,1507.0,SINGLE_FAMILY,3095,259413.0,3,2.0,1136,37.391212,-121.8713,https://www.zillow.com/homedetails/1450-Four-Oaks-Cir-San-Jose-CA-95131/19564850_zpid/,Sold
"1980 Bright Willow Cir, San Jose, CA 95131",95131,1480000.0,Sold 05/16/2019,2005,3200.0,SINGLE_FAMILY,4200,1001337.0,5,4.0,2045,37.39207,-121.90204,https://www.zillow.com/homedetails/1980-Bright-Willow-Cir-San-Jose-CA-95131/64469614_zpid/,Sold
"1563 Chihong Dr, San Jose, CA 95131",95131,1258000.0,Sold 05/13/2019,1993,3136.0,TOWNHOUSE,3895,429406.0,4,3.0,2009,37.382587,-121.890354,https://www.zillow.com/homedetails/1563-Chihong-Dr-San-Jose-CA-95131/19562004_zpid/,Sold
"1341 Mercado Way, San Jose, CA 95131",95131,1156000.0,Sold 05/10/2019,2014,435.0,CONDO,3600,775638.0,3,3.0,1851,37.370796,-121.882088,https://www.zillow.com/homedetails/1341-Mercado-Way-San-Jose-CA-95131/124743153_zpid/,Sold
"1583 Fairway Green Cir, San Jose, CA 95131",95131,950000.0,Sold 05/10/2019,1988,1681.0,TOWNHOUSE,3360,667649.0,2,2.5,1558,37.378664,-121.88402,https://www.zillow.com/homedetails/1583-Fairway-Green-Cir-San-Jose-CA-95131/19561193_zpid/,Sold
"2100 Klassen Way, San Jose, CA 95131",95131,855800.0,Video Walkthrough,2009,453.0,CONDO,3050,482140.0,2,3.0,1080,37.39307,-121.903416,https://www.zillow.com/homedetails/2100-Klassen-Way-San-Jose-CA-95131/89475616_zpid/,Sold
"1141 Rosebriar Way, San Jose, CA 95131",95131,1148888.0,Sold 05/08/2019,1988,5079.0,SINGLE_FAMILY,3600,656660.0,3,3.0,1645,37.375484,-121.876763,https://www.zillow.com/homedetails/1141-Rosebriar-Way-San-Jose-CA-95131/19560960_zpid/,Sold
"2151 Oakland Rd SPC 542, San Jose, CA 95131",95131,185000.0,Sold 05/08/2019,1976,-1.0,MANUFACTURED,3200,,2,2.0,1440,37.40036,-121.906739,https://www.zillow.com/homedetails/2151-Oakland-Rd-SPC-542-San-Jose-CA-95131/2084906107_zpid/,Sold
"1657 Murasky Pl, San Jose, CA 95131",95131,1200000.0,Sold 05/07/2019,2014,1942.0,TOWNHOUSE,3600,790945.0,3,3.0,1861,37.373427,-121.878674,https://www.zillow.com/homedetails/1657-Murasky-Pl-San-Jose-CA-95131/122063658_zpid/,Sold
"1151 Westbury Dr, San Jose, CA 95131",95131,950000.0,Sold 05/07/2019,2007,2025.0,SINGLE_FAMILY,3380,751168.0,3,2.5,1376,37.393992,-121.902264,https://www.zillow.com/homedetails/1151-Westbury-Dr-San-Jose-CA-95131/82960831_zpid/,Sold
"2151 Oakland Rd SPC 581, San Jose, CA 95131",95131,183000.0,Sold 05/06/2019,1974,-1.0,MANUFACTURED,3310,,2,2.0,1816,37.40036,-121.906739,https://www.zillow.com/homedetails/2151-Oakland-Rd-SPC-581-San-Jose-CA-95131/2085332077_zpid/,Sold
"1657 Parkview Green Cir, San Jose, CA 95131",95131,768000.0,Sold 05/03/2019,1988,1740.0,SINGLE_FAMILY,2781,683400.0,1,1.0,940,37.37957,-121.884299,https://www.zillow.com/homedetails/1657-Parkview-Green-Cir-San-Jose-CA-95131/19561467_zpid/,Sold
"992 Arrowleaf Pl, San Jose, CA 95131",95131,1220800.0,Sold 05/03/2019,2016,723.0,TOWNHOUSE,3700,938400.0,3,3.5,1718,37.380566,-121.898183,https://www.zillow.com/homedetails/992-Arrowleaf-Pl-San-Jose-CA-95131/243212272_zpid/,Sold
"1657 Parkview Green Cir, San Jose, CA 95131",95131,768000.0,Sold 05/03/2019,1988,1740.0,SINGLE_FAMILY,2781,683400.0,1,1.0,940,37.37957,-121.884299,https://www.zillow.com/homedetails/1657-Parkview-Green-Cir-San-Jose-CA-95131/19561467_zpid/,Sold
"1508 Murphy Ave, San Jose, CA 95131",95131,3000000.0,Sold 05/01/2019,1952,19475.0,LOT,3400,1836000.0,3,,1618,37.384614,-121.889761,https://www.zillow.com/homedetails/1508-Murphy-Ave-San-Jose-CA-95131/19560558_zpid/,Sold
"2151 Oakland Rd SPC 272, San Jose, CA 95131",95131,150000.0,Sold 04/30/2019,1972,-1.0,MANUFACTURED,3205,,2,1.0,1040,37.40036,-121.906739,https://www.zillow.com/homedetails/2151-Oakland-Rd-SPC-272-San-Jose-CA-95131/2085362787_zpid/,Sold
"1577 Fairway Green Cir, San Jose, CA 95131",95131,1100000.0,Sold 04/29/2019,1988,1764.0,TOWNHOUSE,3500,818604.0,3,2.5,1672,37.378511,-121.883746,https://www.zillow.com/homedetails/1577-Fairway-Green-Cir-San-Jose-CA-95131/19561196_zpid/,Sold
"2194 Stratton Pl, San Jose, CA 95131",95131,960888.0,Sold 04/29/2019,1976,7405.0,SINGLE_FAMILY,3200,117720.0,3,2.0,1041,37.389084,-121.872455,https://www.zillow.com/homedetails/2194-Stratton-Pl-San-Jose-CA-95131/19565232_zpid/,Sold
"1722 Winston St, San Jose, CA 95131",95131,1051000.0,Sold 04/29/2019,1989,3201.0,CONDO,3800,344546.0,4,3.0,2009,37.374254,-121.874797,https://www.zillow.com/homedetails/1722-Winston-St-San-Jose-CA-95131/19561073_zpid/,Sold
"1472 Four Oaks Cir, San Jose, CA 95131",95131,490000.0,Sold 04/26/2019,1986,676.0,CONDO,2300,207638.0,1,1.0,676,37.391654,-121.871843,https://www.zillow.com/homedetails/1472-Four-Oaks-Cir-San-Jose-CA-95131/19564860_zpid/,Sold
"1308 Shore Dr, San Jose, CA 95131",95131,848888.0,Sold 04/24/2019,2014,435.0,CONDO,3100,612806.0,2,2.0,1171,37.371017,-121.882753,https://www.zillow.com/homedetails/1308-Shore-Dr-San-Jose-CA-95131/124744462_zpid/,Sold
"1287 Westbury Dr, San Jose, CA 95131",95131,1115000.0,Sold 04/24/2019,2009,784.0,TOWNHOUSE,3700,634244.0,4,4.0,1573,37.395546,-121.902577,https://www.zillow.com/homedetails/1287-Westbury-Dr-San-Jose-CA-95131/94695704_zpid/,Sold
"1058 Bruzzone Way, San Jose, CA 95131",95131,1165000.0,Sold 04/19/2019,2014,435.0,CONDO,3715,824447.0,4,4.0,1851,37.370724,-121.882506,https://www.zillow.com/homedetails/1058-Bruzzone-Way-San-Jose-CA-95131/124745159_zpid/,Sold
"1908 Fumia Pl, San Jose, CA 95131",95131,1480000.0,Sold 04/18/2019,1997,5227.0,SINGLE_FAMILY,4300,831367.0,3,2.5,2287,37.388022,-121.899118,https://www.zillow.com/homedetails/1908-Fumia-Pl-San-Jose-CA-95131/19563808_zpid/,Sold
"1073 Foxglove Pl UNIT 105, San Jose, CA 95131",95131,1320000.0,Sold 04/17/2019,2014,436.0,CONDO,4100,1144334.0,4,5.0,2243,37.379945,-121.896947,https://www.zillow.com/homedetails/1073-Foxglove-Pl-UNIT-105-San-Jose-CA-95131/124743798_zpid/,Sold
"1052 Pear Orchard Dr, San Jose, CA 95131",95131,1095000.0,Sold 04/16/2019,2015,1537.0,CONDO,3500,810189.0,2,3.0,1622,37.379011,-121.896719,https://www.zillow.com/homedetails/1052-Pear-Orchard-Dr-San-Jose-CA-95131/166730670_zpid/,Sold
"1436 Stanton Way, San Jose, CA 95131",95131,1600000.0,Sold 04/16/2019,1994,4356.0,SINGLE_FAMILY,4600,905198.0,4,2.5,2371,37.377829,-121.885404,https://www.zillow.com/homedetails/1436-Stanton-Way-San-Jose-CA-95131/19561326_zpid/,Sold
"1630 Vendre Pl, San Jose, CA 95131",95131,965000.0,Sold 04/12/2019,2014,1598.0,TOWNHOUSE,3300,708053.0,2,2.5,1481,37.373213,-121.879221,https://www.zillow.com/homedetails/1630-Vendre-Pl-San-Jose-CA-95131/122249251_zpid/,Sold
"2151 Oakland Rd SPC 481, San Jose, CA 95131",95131,235000.0,Sold 04/12/2019,1969,-1.0,MANUFACTURED,3500,,3,2.0,1344,37.40036,-121.906739,https://www.zillow.com/homedetails/2151-Oakland-Rd-SPC-481-San-Jose-CA-95131/2088920476_zpid/,Sold
"1251 Trumpeter Pl, San Jose, CA 95131",95131,825000.0,Sold 04/10/2019,1993,435.0,CONDO,3200,575662.0,2,2.0,1157,37.386378,-121.893598,https://www.zillow.com/homedetails/1251-Trumpeter-Pl-San-Jose-CA-95131/19563641_zpid/,Sold
"1383 Aberford Dr, San Jose, CA 95131",95131,1150000.0,Sold 04/10/2019,1971,6037.0,SINGLE_FAMILY,3500,201238.0,4,2.0,1305,37.38732,-121.86941,https://www.zillow.com/homedetails/1383-Aberford-Dr-San-Jose-CA-95131/19564697_zpid/,Sold
"1405 Sajak Ave, San Jose, CA 95131",95131,1360000.0,Sold 04/08/2019,1989,3497.0,SINGLE_FAMILY,4200,598246.0,4,3.0,1828,37.383757,-121.886485,https://www.zillow.com/homedetails/1405-Sajak-Ave-San-Jose-CA-95131/153225125_zpid/,Sold
"1268 Flickinger Ave, San Jose, CA 95131",95131,949888.0,Sold 04/05/2019,1970,6194.0,SINGLE_FAMILY,3200,161456.0,3,2.0,986,37.383329,-121.870528,https://www.zillow.com/homedetails/1268-Flickinger-Ave-San-Jose-CA-95131/19564552_zpid/,Sold
"2216 Emerald Hills Cir, San Jose, CA 95131",95131,1225000.0,Sold 04/05/2019,1985,4717.0,SINGLE_FAMILY,3800,697112.0,4,3.0,1829,37.389634,-121.870879,https://www.zillow.com/homedetails/2216-Emerald-Hills-Cir-San-Jose-CA-95131/19564758_zpid/,Sold
"1431 Prelude Dr, San Jose, CA 95131",95131,1270000.0,Sold 04/04/2019,1993,5200.0,SINGLE_FAMILY,3800,759592.0,4,3.0,1760,37.382082,-121.880392,https://www.zillow.com/homedetails/1431-Prelude-Dr-San-Jose-CA-95131/19566669_zpid/,Sold
"1785 Parkview Green Cir, San Jose, CA 95131",95131,762000.0,Sold 04/02/2019,1988,1742.0,CONDO,2700,452492.0,2,1.0,940,37.379361,-121.88217,https://www.zillow.com/homedetails/1785-Parkview-Green-Cir-San-Jose-CA-95131/19561601_zpid/,Sold
"1016 Bellante Ln UNIT 1, San Jose, CA 95131",95131,1165000.0,Sold 03/29/2019,2019,-1.0,SINGLE_FAMILY,3500,,3,2.5,1847,37.371825,-121.880305,https://www.zillow.com/homedetails/1016-Bellante-Ln-UNIT-1-San-Jose-CA-95131/2085724734_zpid/,Sold
"1016 Bellante Ln # 1, San Jose, CA 95131",95131,1165000.0,Sold 03/29/2019,-1,-1.0,CONDO,3800,193960.0,0,,,37.3714,-121.8797,https://www.zillow.com/homedetails/1016-Bellante-Ln-1-San-Jose-CA-95131/295034908_zpid/,Sold
"1820 Sonnet Ct, San Jose, CA 95131",95131,1420000.0,Sold 03/28/2019,1996,4624.0,SINGLE_FAMILY,4200,986604.0,5,3.0,2121,37.399196,-121.881454,https://www.zillow.com/homedetails/1820-Sonnet-Ct-San-Jose-CA-95131/19563196_zpid/,Sold
"1290 Aberford Dr, San Jose, CA 95131",95131,1130000.0,Sold 03/26/2019,1971,6107.0,SINGLE_FAMILY,3600,754332.0,4,2.0,1499,37.385577,-121.86838,https://www.zillow.com/homedetails/1290-Aberford-Dr-San-Jose-CA-95131/19564676_zpid/,Sold
"1954 Lowney Way, San Jose, CA 95131",95131,1200000.0,Sold 03/25/2019,1971,5998.0,SINGLE_FAMILY,3650,571883.0,4,3.0,1601,37.386143,-121.876003,https://www.zillow.com/homedetails/1954-Lowney-Way-San-Jose-CA-95131/19565473_zpid/,Sold
"1073 Foxglove Pl UNIT 110, San Jose, CA 95131",95131,1190000.0,Sold 03/22/2019,2014,436.0,CONDO,3750,787995.0,4,4.0,2001,37.3798,-121.89651,https://www.zillow.com/homedetails/1073-Foxglove-Pl-UNIT-110-San-Jose-CA-95131/124745608_zpid/,Sold
"1637 Thorncrest Dr, San Jose, CA 95131",95131,720000.0,Sold 03/21/2019,1987,1306.0,CONDO,2750,477813.0,2,2.0,922,37.376604,-121.879928,https://www.zillow.com/homedetails/1637-Thorncrest-Dr-San-Jose-CA-95131/19560787_zpid/,Sold
"1133 Autumnsong Way, San Jose, CA 95131",95131,1435000.0,Sold 03/19/2019,2006,5445.0,SINGLE_FAMILY,4200,942647.0,4,4.0,2140,37.376273,-121.874587,https://www.zillow.com/homedetails/1133-Autumnsong-Way-San-Jose-CA-95131/79841329_zpid/,Sold
"1707 Ringwood Ave, San Jose, CA 95131",95131,1800000.0,Sold 03/18/2019,1946,12980.0,LOT,3025,1800000.0,3,,1144,37.386787,-121.892528,https://www.zillow.com/homedetails/1707-Ringwood-Ave-San-Jose-CA-95131/19563551_zpid/,Sold
"1057 Foxglove Pl UNIT 202, San Jose, CA 95131",95131,1100000.0,Sold 03/18/2019,2014,436.0,CONDO,3500,1092314.0,3,2.5,1850,37.379922,-121.897586,https://www.zillow.com/homedetails/1057-Foxglove-Pl-UNIT-202-San-Jose-CA-95131/124744017_zpid/,Sold
"2265 Fallingtree Dr, San Jose, CA 95131",95131,910000.0,Sold 03/18/2019,1973,6464.0,SINGLE_FAMILY,3200,592285.0,3,2.0,1041,37.396782,-121.883046,https://www.zillow.com/homedetails/2265-Fallingtree-Dr-San-Jose-CA-95131/19562263_zpid/,Sold
"2249 Hikido Dr, San Jose, CA 95131",95131,901000.0,Sold 03/15/2019,1971,5998.0,SINGLE_FAMILY,3500,87464.0,3,2.0,1305,37.385881,-121.867601,https://www.zillow.com/homedetails/2249-Hikido-Dr-San-Jose-CA-95131/19564664_zpid/,Sold
"1673 River Birch Ct, San Jose, CA 95131",95131,860000.0,Sold 03/14/2019,1985,3118.0,SINGLE_FAMILY,3450,392891.0,4,2.5,1647,37.373553,-121.874651,https://www.zillow.com/homedetails/1673-River-Birch-Ct-San-Jose-CA-95131/19560436_zpid/,Sold
"1788 Flickinger Ave, San Jose, CA 95131",95131,910000.0,Sold 03/09/2019,1973,5662.0,SINGLE_FAMILY,3200,187519.0,3,2.0,1041,37.394279,-121.882395,https://www.zillow.com/homedetails/1788-Flickinger-Ave-San-Jose-CA-95131/19562683_zpid/,Sold
"1011 Bellante Ln UNIT 4, San Jose, CA 95131",95131,1200000.0,Sold 03/08/2019,-1,-1.0,CONDO,3718,214566.0,0,,,37.3714,-121.8797,https://www.zillow.com/homedetails/1011-Bellante-Ln-UNIT-4-San-Jose-CA-95131/284868753_zpid/,Sold
"2249 Belthorn Ct, San Jose, CA 95131",95131,1320000.0,Sold 03/07/2019,1971,10998.0,SINGLE_FAMILY,3900,710174.0,5,3.5,2309,37.384922,-121.866182,https://www.zillow.com/homedetails/2249-Belthorn-Ct-San-Jose-CA-95131/19564314_zpid/,Sold
"1011 Bellante Ln UNIT 2, San Jose, CA 95131",95131,885000.0,Sold 03/02/2019,2019,-1.0,APARTMENT,3435,,2,2.0,1171,37.3714,-121.8797,https://www.zillow.com/homedetails/1011-Bellante-Ln-UNIT-2-San-Jose-CA-95131/2085614576_zpid/,Sold
"2084 Swensen Ct, San Jose, CA 95131",95131,799888.0,Sold 03/02/2019,1971,1550.0,CONDO,3000,105829.0,4,2.0,1320,37.38096,-121.869142,https://www.zillow.com/homedetails/2084-Swensen-Ct-San-Jose-CA-95131/19566158_zpid/,Sold
"1698 Sierra Rd, San Jose, CA 95131",95131,1050000.0,Sold 03/01/2019,1985,4978.0,SINGLE_FAMILY,3650,513313.0,4,2.5,1618,37.379475,-121.878594,https://www.zillow.com/homedetails/1698-Sierra-Rd-San-Jose-CA-95131/19560173_zpid/,Sold
"2151 Oakland Rd SPC 331, San Jose, CA 95131",95131,195000.0,Sold 03/01/2019,1993,-1.0,MANUFACTURED,3500,,3,4.0,1344,37.40036,-121.906739,https://www.zillow.com/homedetails/2151-Oakland-Rd-SPC-331-San-Jose-CA-95131/2086590311_zpid/,Sold
"1016 Bellante Ln # 2, San Jose, CA 95131",95131,830000.0,Sold 03/01/2019,-1,-1.0,CONDO,3600,193960.0,0,,,37.3714,-121.8797,https://www.zillow.com/homedetails/1016-Bellante-Ln-2-San-Jose-CA-95131/252712718_zpid/,Sold
"2003 Autumn Gold Dr, San Jose, CA 95131",95131,928888.0,Sold 03/01/2019,1974,7200.0,SINGLE_FAMILY,3200,92124.0,3,2.0,1041,37.389711,-121.878295,https://www.zillow.com/homedetails/2003-Autumn-Gold-Dr-San-Jose-CA-95131/19565357_zpid/,Sold
"1011 Bellante Ln # 7, San Jose, CA 95131",95131,1325803.0,Sold 03/01/2019,-1,10673.0,CONDO,,1472514.0,0,,,37.3714,-121.8797,https://www.zillow.com/homedetails/1011-Bellante-Ln-7-San-Jose-CA-95131/266718470_zpid/,Sold
"1016 Bellante Ln UNIT 3, San Jose, CA 95131",95131,946500.0,Sold 02/28/2019,2019,-1.0,CONDO,3600,193960.0,2,2.0,1371,37.3714,-121.8797,https://www.zillow.com/homedetails/1016-Bellante-Ln-UNIT-3-San-Jose-CA-95131/253431949_zpid/,Sold
"1691 Silvertree Dr, San Jose, CA 95131",95131,935000.0,Sold 02/28/2019,1974,6159.0,SINGLE_FAMILY,3500,486110.0,3,2.0,1361,37.390923,-121.881845,https://www.zillow.com/homedetails/1691-Silvertree-Dr-San-Jose-CA-95131/19562870_zpid/,Sold
"1011 Bellante Ln UNIT 3, San Jose, CA 95131",95131,998500.0,Sold 02/28/2019,-1,-1.0,CONDO,3600,214566.0,0,,,37.3714,-121.8797,https://www.zillow.com/homedetails/1011-Bellante-Ln-UNIT-3-San-Jose-CA-95131/253431948_zpid/,Sold
"1691 Silvertree Dr, San Jose, CA 95131",95131,935000.0,Sold 02/28/2019,1974,6159.0,SINGLE_FAMILY,3500,486110.0,3,2.0,1361,37.390923,-121.881845,https://www.zillow.com/homedetails/1691-Silvertree-Dr-San-Jose-CA-95131/19562870_zpid/,Sold
"1016 Bellante Ln UNIT 3, San Jose, CA 95131",95131,946500.0,Sold 02/28/2019,2019,-1.0,CONDO,3600,193960.0,2,2.0,1371,37.3714,-121.8797,https://www.zillow.com/homedetails/1016-Bellante-Ln-UNIT-3-San-Jose-CA-95131/253431949_zpid/,Sold
"1016 Bellante Ln # 7, San Jose, CA 95131",95131,1165000.0,Sold 02/28/2019,-1,-1.0,TOWNHOUSE,3800,193960.0,4,3.5,1847,37.3714,-121.8797,https://www.zillow.com/homedetails/1016-Bellante-Ln-7-San-Jose-CA-95131/256161044_zpid/,Sold
"1011 Bellante Ln # 5, San Jose, CA 95131",95131,885000.0,Sold 02/27/2019,-1,-1.0,CONDO,3600,214566.0,0,,,37.3714,-121.8797,https://www.zillow.com/homedetails/1011-Bellante-Ln-5-San-Jose-CA-95131/252455213_zpid/,Sold
"2151 Oakland Rd SPC 212, San Jose, CA 95131",95131,280000.0,Sold 02/27/2019,1999,-1.0,MANUFACTURED,3500,,5,2.0,1560,37.40036,-121.906739,https://www.zillow.com/homedetails/2151-Oakland-Rd-SPC-212-San-Jose-CA-95131/2132840745_zpid/,Sold
"1013 Onofrio Ln UNIT 2, San Jose, CA 95131",95131,850000.0,Sold 02/27/2019,-1,-1.0,CONDO,3600,193960.0,0,,,37.3717,-121.8794,https://www.zillow.com/homedetails/1013-Onofrio-Ln-UNIT-2-San-Jose-CA-95131/252455214_zpid/,Sold
"1016 Bellante Ln # 4, San Jose, CA 95131",95131,1182500.0,Sold 02/27/2019,-1,-1.0,CONDO,3800,193960.0,0,,,37.3714,-121.8797,https://www.zillow.com/homedetails/1016-Bellante-Ln-4-San-Jose-CA-95131/252455212_zpid/,Sold
"1016 Bellante #4, San Jose, CA 95131",95131,1182500.0,Sold 02/27/2019,-1,-1.0,TOWNHOUSE,3700,,4,4.0,1707,37.3714,-121.8797,https://www.zillow.com/homedetails/1016-Bellante-4-San-Jose-CA-95131/2085659317_zpid/,Sold
"1432 Rocklin Ct, San Jose, CA 95131",95131,720800.0,Sold 02/26/2019,1984,436.0,CONDO,2887,431211.0,2,2.0,988,37.381707,-121.883197,https://www.zillow.com/homedetails/1432-Rocklin-Ct-San-Jose-CA-95131/19560236_zpid/,Sold
"1618 Solari Pl, San Jose, CA 95131",95131,865000.0,Sold 02/25/2019,2016,1759.0,TOWNHOUSE,3240,772577.0,2,2.0,1372,37.372664,-121.878449,https://www.zillow.com/homedetails/1618-Solari-Pl-San-Jose-CA-95131/243211083_zpid/,Sold
"1013 Onofrio Ln # 6, San Jose, CA 95131",95131,830000.0,Sold 02/23/2019,-1,-1.0,CONDO,3600,193960.0,0,,,37.3717,-121.8794,https://www.zillow.com/homedetails/1013-Onofrio-Ln-6-San-Jose-CA-95131/252337350_zpid/,Sold
"1860 Seville Way, San Jose, CA 95131",95131,1000000.0,Sold 02/22/2019,1971,5501.0,SINGLE_FAMILY,3450,161159.0,3,2.0,1611,37.381606,-121.873487,https://www.zillow.com/homedetails/1860-Seville-Way-San-Jose-CA-95131/19566387_zpid/,Sold
"1631 Four Oaks Rd, San Jose, CA 95131",95131,1320000.0,Sold 02/22/2019,1974,8250.0,SINGLE_FAMILY,4000,718491.0,4,2.0,1994,37.394082,-121.877236,https://www.zillow.com/homedetails/1631-Four-Oaks-Rd-San-Jose-CA-95131/19562649_zpid/,Sold
"1877 Flickinger Ave, San Jose, CA 95131",95131,1080000.0,Sold 02/22/2019,1973,6159.0,SINGLE_FAMILY,3600,449135.0,4,2.0,1234,37.396878,-121.883866,https://www.zillow.com/homedetails/1877-Flickinger-Ave-San-Jose-CA-95131/19562273_zpid/,Sold
"1296 Chessington Dr, San Jose, CA 95131",95131,1310000.0,Sold 02/21/2019,1990,3798.0,SINGLE_FAMILY,4000,797518.0,4,3.0,1918,37.371244,-121.883437,https://www.zillow.com/homedetails/1296-Chessington-Dr-San-Jose-CA-95131/19562045_zpid/,Sold
"1013 Onofrio Ln, San Jose, CA 95131",95131,880000.0,Sold 02/20/2019,-1,-1.0,CONDO,3600,193960.0,0,,,37.3717,-121.8794,https://www.zillow.com/homedetails/1013-Onofrio-Ln-San-Jose-CA-95131/252264987_zpid/,Sold
"1491 Mercado Way, San Jose, CA 95131",95131,865000.0,Sold 02/20/2019,2014,435.0,CONDO,3350,623192.0,2,2.0,1371,37.371719,-121.88082,https://www.zillow.com/homedetails/1491-Mercado-Way-San-Jose-CA-95131/124742515_zpid/,Sold
"1658 Parkview Green Cir, San Jose, CA 95131",95131,833000.0,Sold 02/16/2019,1988,1740.0,CONDO,3038,203658.0,2,2.0,1092,37.379322,-121.883626,https://www.zillow.com/homedetails/1658-Parkview-Green-Cir-San-Jose-CA-95131/19561496_zpid/,Sold
"1415 Gordy Dr, San Jose, CA 95131",95131,1175168.0,Sold 02/14/2019,1987,5430.0,SINGLE_FAMILY,3500,379310.0,3,3.0,1479,37.38381,-121.881182,https://www.zillow.com/homedetails/1415-Gordy-Dr-San-Jose-CA-95131/19566639_zpid/,Sold
"1018 Onofrio Ln UNIT 2, San Jose, CA 95131",95131,874000.0,Sold 02/08/2019,-1,-1.0,CONDO,3600,265267.0,0,,,37.3717,-121.8794,https://www.zillow.com/homedetails/1018-Onofrio-Ln-UNIT-2-San-Jose-CA-95131/252076086_zpid/,Sold
"1013 Onofrio Ln, San Jose, CA 95131",95131,1025500.0,Sold 01/30/2019,-1,-1.0,CONDO,3600,193960.0,0,,,37.3717,-121.8794,https://www.zillow.com/homedetails/1013-Onofrio-Ln-San-Jose-CA-95131/251951560_zpid/,Sold
"1013 Onofrio Ln, San Jose, CA 95131",95131,1205000.0,Sold 01/30/2019,-1,-1.0,CONDO,3718,193960.0,0,,,37.3717,-121.8794,https://www.zillow.com/homedetails/1013-Onofrio-Ln-San-Jose-CA-95131/251951562_zpid/,Sold
"1013 Onofrio Ln UNIT 4, San Jose, CA 95131",95131,1273000.0,Sold 01/29/2019,-1,-1.0,CONDO,3700,193960.0,0,,,37.3717,-121.8794,https://www.zillow.com/homedetails/1013-Onofrio-Ln-UNIT-4-San-Jose-CA-95131/251951556_zpid/,Sold
"1011 Giacomo Ln UNIT 2, San Jose, CA 95131",95131,925000.0,Sold 10/11/2018,-1,-1.0,CONDO,3800,183586.0,0,,,37.3721,-121.8782,https://www.zillow.com/homedetails/1011-Giacomo-Ln-UNIT-2-San-Jose-CA-95131/250641867_zpid/,Sold
"1471 Chavez Way, San Jose, CA 95131",95131,500000.0,Sold 10/09/2018,1993,3619.0,SINGLE_FAMILY,3470,428460.0,3,2.5,1333,37.383774,-121.884567,https://www.zillow.com/homedetails/1471-Chavez-Way-San-Jose-CA-95131/19561791_zpid/,Sold
"2065 Oakland Rd, San Jose, CA 95131",95131,885000.0,Sold 10/09/2018,2007,2025.0,CONDO,3150,580942.0,2,3.0,1213,37.394499,-121.902083,https://www.zillow.com/homedetails/2065-Oakland-Rd-San-Jose-CA-95131/82949320_zpid/,Sold
"2204 Beech Cir, San Jose, CA 95131",95131,1000000.0,Sold 10/09/2018,2008,1742.0,TOWNHOUSE,3500,660174.0,3,3.0,1536,37.403954,-121.884463,https://www.zillow.com/homedetails/2204-Beech-Cir-San-Jose-CA-95131/89474673_zpid/,Sold
"1017 Gabbiano Ln UNIT 1, San Jose, CA 95131",95131,1275500.0,Sold 10/05/2018,-1,-1.0,CONDO,3600,265268.0,0,,,37.3722,-121.8787,https://www.zillow.com/homedetails/1017-Gabbiano-Ln-UNIT-1-San-Jose-CA-95131/250641900_zpid/,Sold
"1017 Gabbiano Ln UNIT 3, San Jose, CA 95131",95131,1275500.0,Sold 10/05/2018,-1,5655.0,CONDO,,780199.0,0,,,37.3722,-121.8787,https://www.zillow.com/homedetails/1017-Gabbiano-Ln-UNIT-3-San-Jose-CA-95131/250270262_zpid/,Sold
"2061 Croner Pl, San Jose, CA 95131",95131,162000.0,Sold 10/03/2018,2004,3096.0,SINGLE_FAMILY,4200,964851.0,3,2.5,2082,37.389341,-121.875677,https://www.zillow.com/homedetails/2061-Croner-Pl-San-Jose-CA-95131/64547926_zpid/,Sold
"1452 Maxwell Way, San Jose, CA 95131",95131,1652888.0,Sold 10/02/2018,1994,4748.0,SINGLE_FAMILY,4545,840100.0,5,3.0,2551,37.377052,-121.886524,https://www.zillow.com/homedetails/1452-Maxwell-Way-San-Jose-CA-95131/19561281_zpid/,Sold
"1782 Sageland Dr, San Jose, CA 95131",95131,1105000.0,Sold 10/02/2018,1975,5998.0,SINGLE_FAMILY,3200,79952.0,3,2.0,1041,37.381627,-121.874606,https://www.zillow.com/homedetails/1782-Sageland-Dr-San-Jose-CA-95131/19565963_zpid/,Sold
"2116 Imwalle Ct, San Jose, CA 95131",95131,1000000.0,Sold 10/01/2018,1970,9478.0,SINGLE_FAMILY,3395,326461.0,3,2.0,1206,37.382272,-121.867628,https://www.zillow.com/homedetails/2116-Imwalle-Ct-San-Jose-CA-95131/19564471_zpid/,Sold
"1683 Flickinger Ave, San Jose, CA 95131",95131,1130000.0,Sold 09/28/2018,1974,6804.0,SINGLE_FAMILY,3600,405224.0,4,2.0,1234,37.391724,-121.880357,https://www.zillow.com/homedetails/1683-Flickinger-Ave-San-Jose-CA-95131/19562846_zpid/,Sold
"1584 Myrick Ct, San Jose, CA 95131",95131,1100000.0,Sold 09/28/2018,1987,3044.0,SINGLE_FAMILY,3600,664757.0,4,3.0,1566,37.392095,-121.876768,https://www.zillow.com/homedetails/1584-Myrick-Ct-San-Jose-CA-95131/19565154_zpid/,Sold
"1563 Mercado Way, San Jose, CA 95131",95131,1200000.0,Sold 09/28/2018,2014,1685.0,SINGLE_FAMILY,3600,819213.0,3,3.0,1693,37.372246,-121.880107,https://www.zillow.com/homedetails/1563-Mercado-Way-San-Jose-CA-95131/122249306_zpid/,Sold
"1033 Gabbiano Ln UNIT 3, San Jose, CA 95131",95131,925000.0,Sold 09/28/2018,2018,-1.0,CONDO,3600,434804.0,2,2.0,1371,37.3722,-121.8787,https://www.zillow.com/homedetails/1033-Gabbiano-Ln-UNIT-3-San-Jose-CA-95131/250642056_zpid/,Sold
"1017 Gabbiano Ln UNIT 2, San Jose, CA 95131",95131,1011000.0,Sold 09/27/2018,-1,-1.0,CONDO,3600,265267.0,0,,,37.3722,-121.8787,https://www.zillow.com/homedetails/1017-Gabbiano-Ln-UNIT-2-San-Jose-CA-95131/250641999_zpid/,Sold
"1766 Camino Leonor, San Jose, CA 95131",95131,755000.0,Sold 09/26/2018,2006,1498.0,CONDO,3150,542405.0,1,1.5,1415,37.390135,-121.888886,https://www.zillow.com/homedetails/1766-Camino-Leonor-San-Jose-CA-95131/79841283_zpid/,Sold
"1032 Abruzzo Ln UNIT 4, San Jose, CA 95131",95131,1009000.0,Sold 09/25/2018,-1,9702.0,CONDO,,1338549.0,0,,,37.3714,-121.8788,https://www.zillow.com/homedetails/1032-Abruzzo-Ln-UNIT-4-San-Jose-CA-95131/245508023_zpid/,Sold
"1025 Bellante Ln UNIT 2, San Jose, CA 95131",95131,950000.0,Sold 09/24/2018,-1,-1.0,CONDO,3600,218366.0,0,,,37.3714,-121.8797,https://www.zillow.com/homedetails/1025-Bellante-Ln-UNIT-2-San-Jose-CA-95131/250642060_zpid/,Sold
"2151 Oakland Rd SPC 467, San Jose, CA 95131",95131,190000.0,Sold 09/24/2018,2005,-1.0,MANUFACTURED,3400,,3,2.0,1238,37.40036,-121.906739,https://www.zillow.com/homedetails/2151-Oakland-Rd-SPC-467-San-Jose-CA-95131/2131859257_zpid/,Sold
"1771 Sageland Dr, San Jose, CA 95131",95131,200000.0,Sold 09/21/2018,1975,6000.0,SINGLE_FAMILY,3200,340611.0,3,2.0,1041,37.381553,-121.875338,https://www.zillow.com/homedetails/1771-Sageland-Dr-San-Jose-CA-95131/19565880_zpid/,Sold
"1542 Meadow Ridge Cir, San Jose, CA 95131",95131,685000.0,Sold 09/21/2018,1985,435.0,APARTMENT,2700,409398.0,2,1.0,896,37.381628,-121.884176,https://www.zillow.com/homedetails/1542-Meadow-Ridge-Cir-San-Jose-CA-95131/19560255_zpid/,Sold
"1353 Aberford Dr, San Jose, CA 95131",95131,1176000.0,Sold 09/21/2018,1971,6033.0,SINGLE_FAMILY,3500,823885.0,4,2.0,1305,37.386683,-121.868749,https://www.zillow.com/homedetails/1353-Aberford-Dr-San-Jose-CA-95131/19564702_zpid/,Sold
"1371 Marcello Dr, San Jose, CA 95131",95131,1050000.0,Sold 09/20/2018,2007,1226.0,CONDO,3250,559131.0,2,2.5,1519,37.390805,-121.890072,https://www.zillow.com/homedetails/1371-Marcello-Dr-San-Jose-CA-95131/82948441_zpid/,Sold
"1053 Dewberry Pl UNIT 404, San Jose, CA 95131",95131,1388000.0,Sold 09/20/2018,2015,1803.0,CONDO,3600,1039240.0,4,3.0,2147,37.380165,-121.897742,https://www.zillow.com/homedetails/1053-Dewberry-Pl-UNIT-404-San-Jose-CA-95131/124744772_zpid/,Sold
"1011 Giacomo Ln UNIT 5, San Jose, CA 95131",95131,989000.0,Sold 09/19/2018,-1,-1.0,CONDO,3800,183587.0,0,,,37.3721,-121.8782,https://www.zillow.com/homedetails/1011-Giacomo-Ln-UNIT-5-San-Jose-CA-95131/250641941_zpid/,Sold
"1287 Marcello Dr, San Jose, CA 95131",95131,710000.0,Sold 09/17/2018,2006,1498.0,APARTMENT,3200,538682.0,1,1.5,1415,37.390446,-121.890726,https://www.zillow.com/homedetails/1287-Marcello-Dr-San-Jose-CA-95131/79844314_zpid/,Sold
"2119 Oakland Rd, San Jose, CA 95131",95131,1151000.0,Sold 09/17/2018,2009,701.0,TOWNHOUSE,3300,565747.0,3,2.5,1376,37.395671,-121.902351,https://www.zillow.com/homedetails/2119-Oakland-Rd-San-Jose-CA-95131/94699063_zpid/,Sold
"1723 Flickinger Ct, San Jose, CA 95131",95131,626000.0,Sold 09/14/2018,1990,863.0,CONDO,2750,491588.0,2,2.0,852,37.39788,-121.884097,https://www.zillow.com/homedetails/1723-Flickinger-Ct-San-Jose-CA-95131/19562324_zpid/,Sold
"1186 Pembroke Dr, San Jose, CA 95131",95131,1105000.0,Sold 09/14/2018,1971,6220.0,SINGLE_FAMILY,3600,209367.0,4,2.0,1393,37.383402,-121.865599,https://www.zillow.com/homedetails/1186-Pembroke-Dr-San-Jose-CA-95131/19564268_zpid/,Sold
"1865 Bright Willow Cir, San Jose, CA 95131",95131,1550000.0,Sold 09/14/2018,2005,5449.0,SINGLE_FAMILY,4300,1123631.0,4,2.5,2150,37.392246,-121.903397,https://www.zillow.com/homedetails/1865-Bright-Willow-Cir-San-Jose-CA-95131/64495572_zpid/,Sold
"1253 Avenida Las Brisas, San Jose, CA 95131",95131,1000000.0,Sold 09/12/2018,2006,10511.0,TOWNHOUSE,3200,644774.0,2,2.0,1307,37.389879,-121.889861,https://www.zillow.com/homedetails/1253-Avenida-Las-Brisas-San-Jose-CA-95131/79846871_zpid/,Sold
"1111 Avenida Benito, San Jose, CA 95131",95131,1285000.0,Sold 09/12/2018,2006,875.0,TOWNHOUSE,3900,837114.0,3,3.0,1739,37.388611,-121.89282,https://www.zillow.com/homedetails/1111-Avenida-Benito-San-Jose-CA-95131/79842000_zpid/,Sold
"1254 Fairweather Lake Cmn, San Jose, CA 95131",95131,968000.0,Sold 09/11/2018,1996,945.0,TOWNHOUSE,3200,264231.0,2,2.5,1181,37.386241,-121.894881,https://www.zillow.com/homedetails/1254-Fairweather-Lake-Cmn-San-Jose-CA-95131/19563018_zpid/,Sold
"1757 Parkview Green Cir, San Jose, CA 95131",95131,643000.0,Sold 09/11/2018,1988,1740.0,CONDO,2400,255246.0,1,1.0,719,37.378896,-121.882674,https://www.zillow.com/homedetails/1757-Parkview-Green-Cir-San-Jose-CA-95131/19561583_zpid/,Sold
"1841 Mandel Ct, San Jose, CA 95131",95131,1000000.0,Sold 09/10/2018,1974,6090.0,SINGLE_FAMILY,3500,311461.0,3,2.0,1372,37.382823,-121.877027,https://www.zillow.com/homedetails/1841-Mandel-Ct-San-Jose-CA-95131/19565791_zpid/,Sold
"1325 Hapland Ct, San Jose, CA 95131",95131,1050000.0,Sold 09/10/2018,1975,8176.0,SINGLE_FAMILY,3600,241478.0,4,2.0,1578,37.381912,-121.875607,https://www.zillow.com/homedetails/1325-Hapland-Ct-San-Jose-CA-95131/19565900_zpid/,Sold
"2403 Jubilee Ln, San Jose, CA 95131",95131,695000.0,Sold 09/10/2018,1990,1771.0,CONDO,2801,561816.0,2,2.0,966,37.401749,-121.885536,https://www.zillow.com/homedetails/2403-Jubilee-Ln-San-Jose-CA-95131/19563448_zpid/,Sold
"1605 Fairway Green Cir, San Jose, CA 95131",95131,1145000.0,Sold 09/07/2018,1988,1742.0,CONDO,3500,727272.0,3,3.0,1672,37.378852,-121.884905,https://www.zillow.com/homedetails/1605-Fairway-Green-Cir-San-Jose-CA-95131/19561182_zpid/,Sold
"1308 Starglo Pl, San Jose, CA 95131",95131,905000.0,Sold 09/07/2018,1993,435.0,CONDO,2900,364282.0,2,2.0,1006,37.387027,-121.893794,https://www.zillow.com/homedetails/1308-Starglo-Pl-San-Jose-CA-95131/19563662_zpid/,Sold
"1379 Mercado Way, San Jose, CA 95131",95131,870000.0,Sold 09/07/2018,2014,435.0,CONDO,3100,635983.0,2,2.0,1171,37.370996,-121.881809,https://www.zillow.com/homedetails/1379-Mercado-Way-San-Jose-CA-95131/124743902_zpid/,Sold
"1018 Onofrio Ln # 3, San Jose, CA 95131",95131,1048000.0,Sold 11/30/2018,-1,-1.0,CONDO,3600,265268.0,,,,37.3717,-121.8794,https://www.zillow.com/homedetails/1018-Onofrio-Ln-3-San-Jose-CA-95131/251006757_zpid/,Sold
"1008 Abruzzo Ln UNIT 3, San Jose, CA 95131",95131,939000.0,Sold 11/30/2018,-1,-1.0,CONDO,3600,265268.0,0,,,37.3714,-121.8788,https://www.zillow.com/homedetails/1008-Abruzzo-Ln-UNIT-3-San-Jose-CA-95131/251006539_zpid/,Sold
"1539 Lundy Ave, San Jose, CA 95131",95131,1700000.0,Sold 11/30/2018,1967,15624.0,SINGLE_FAMILY,3400,79219.0,3,1.0,1783,37.386138,-121.885517,https://www.zillow.com/homedetails/1539-Lundy-Ave-San-Jose-CA-95131/19561424_zpid/,Sold
"1393 Meadow Ridge Cir, San Jose, CA 95131",95131,798000.0,Sold 11/30/2018,1987,52403.0,CONDO,3050,203524.0,3,2.0,1203,37.381985,-121.884698,https://www.zillow.com/homedetails/1393-Meadow-Ridge-Cir-San-Jose-CA-95131/19561124_zpid/,Sold
"1018 Onofrio Ln UNIT 1, San Jose, CA 95131",95131,1345000.0,Sold 11/29/2018,-1,-1.0,CONDO,3700,265267.0,0,,,37.3717,-121.8794,https://www.zillow.com/homedetails/1018-Onofrio-Ln-UNIT-1-San-Jose-CA-95131/251006718_zpid/,Sold
"1015 Abruzzo Ln UNIT 3, San Jose, CA 95131",95131,1034000.0,Sold 11/29/2018,-1,-1.0,CONDO,3600,265267.0,0,,,37.3714,-121.8788,https://www.zillow.com/homedetails/1015-Abruzzo-Ln-UNIT-3-San-Jose-CA-95131/251006469_zpid/,Sold
"1587 De Rome Dr # 3, San Jose, CA 95131",95131,924000.0,Sold 11/29/2018,-1,-1.0,CONDO,3600,271788.0,,,,37.372,-121.8776,https://www.zillow.com/homedetails/1587-De-Rome-Dr-3-San-Jose-CA-95131/250936005_zpid/,Sold
"2151 Oakland Rd SPC 597, San Jose, CA 95131",95131,205000.0,Sold 11/28/2018,1973,-1.0,MANUFACTURED,3500,,4,2.0,1344,37.40036,-121.906739,https://www.zillow.com/homedetails/2151-Oakland-Rd-SPC-597-San-Jose-CA-95131/2118202232_zpid/,Sold
"Montague Expy, San Jose, CA 95131",95131,31000000.0,Sold 11/28/2018,-1,487436.0,LOT,3400,14244744.0,0,,,37.397375,-121.939929,https://www.zillow.com/homedetails/Montague-Expy-San-Jose-CA-95131/153138300_zpid/,Sold
"1573 De Rome Dr UNIT 2, San Jose, CA 95131",95131,1254696.0,Sold 11/28/2018,2018,-1.0,CONDO,3350,,2,2.0,1171,37.372,-121.8776,https://www.zillow.com/homedetails/1573-De-Rome-Dr-UNIT-2-San-Jose-CA-95131/2087618679_zpid/,Sold
"1641 Rue Avati, San Jose, CA 95131",95131,630000.0,Sold 11/28/2018,1973,6000.0,SINGLE_FAMILY,2880,612633.0,2,1.0,880,37.388957,-121.88071,https://www.zillow.com/homedetails/1641-Rue-Avati-San-Jose-CA-95131/19565371_zpid/,Sold
"1015 Abruzzo Ln, San Jose, CA 95131",95131,1255000.0,Sold 11/28/2018,-1,-1.0,CONDO,3695,265268.0,,,,37.3714,-121.8788,https://www.zillow.com/homedetails/1015-Abruzzo-Ln-San-Jose-CA-95131/250936017_zpid/,Sold
"1573 De Rome #4, San Jose, CA 95131",95131,1217000.0,Sold 11/28/2018,-1,-1.0,TOWNHOUSE,3700,,3,3.0,1774,37.372,-121.8776,https://www.zillow.com/homedetails/1573-De-Rome-4-San-Jose-CA-95131/2086887573_zpid/,Sold
"1573 De Rome Dr UNIT 6, San Jose, CA 95131",95131,830000.0,Sold 11/28/2018,-1,-1.0,APARTMENT,3550,203991.0,2,2.0,1171,37.372,-121.8776,https://www.zillow.com/homedetails/1573-De-Rome-Dr-UNIT-6-San-Jose-CA-95131/250936018_zpid/,Sold
"1573 De Rome Dr UNIT 7, San Jose, CA 95131",95131,1271000.0,Sold 11/27/2018,2018,-1.0,TOWNHOUSE,3550,203991.0,4,4.0,1847,37.372,-121.8776,https://www.zillow.com/homedetails/1573-De-Rome-Dr-UNIT-7-San-Jose-CA-95131/250936008_zpid/,Sold
"1011 Giacomo Ln UNIT 1, San Jose, CA 95131",95131,1160000.0,Sold 11/27/2018,-1,-1.0,TOWNHOUSE,3800,183586.0,4,3.5,1847,37.3721,-121.8782,https://www.zillow.com/homedetails/1011-Giacomo-Ln-UNIT-1-San-Jose-CA-95131/250935989_zpid/,Sold
"1032 Mapleton Ct, San Jose, CA 95131",95131,1190000.0,Sold 11/27/2018,2007,3567.0,SINGLE_FAMILY,3850,1011273.0,3,2.5,1828,37.392165,-121.903968,https://www.zillow.com/homedetails/1032-Mapleton-Ct-San-Jose-CA-95131/82948919_zpid/,Sold
"1573 De Rome Dr UNIT 3, San Jose, CA 95131",95131,1002000.0,Sold 11/26/2018,2018,-1.0,CONDO,3600,203992.0,2,2.0,1371,37.372,-121.8776,https://www.zillow.com/homedetails/1573-De-Rome-Dr-UNIT-3-San-Jose-CA-95131/250936004_zpid/,Sold
"1322 Shore Dr, San Jose, CA 95131",95131,1040000.0,Sold 11/26/2018,2014,653.0,TOWNHOUSE,3500,716211.0,3,2.5,1671,37.371076,-121.882665,https://www.zillow.com/homedetails/1322-Shore-Dr-San-Jose-CA-95131/124746243_zpid/,Sold
"1573 De Rome Dr, San Jose, CA 95131",95131,3744000.0,Sold 11/26/2018,-1,-1.0,TOWNHOUSE,3950,203992.0,2,2.0,,37.372,-121.8776,https://www.zillow.com/homedetails/1573-De-Rome-Dr-San-Jose-CA-95131/250935978_zpid/,Sold
"1011 Giacomo Ln UNIT 7, San Jose, CA 95131",95131,1175000.0,Sold 11/24/2018,-1,-1.0,CONDO,3500,,,,,37.371825,-121.880305,https://www.zillow.com/homedetails/1011-Giacomo-Ln-UNIT-7-San-Jose-CA-95131/2088931087_zpid/,Sold
"2121 Doxey Dr, San Jose, CA 95131",95131,898000.0,Sold 11/22/2018,1988,3267.0,SINGLE_FAMILY,3500,554626.0,3,3.0,1285,37.389736,-121.874491,https://www.zillow.com/homedetails/2121-Doxey-Dr-San-Jose-CA-95131/19565172_zpid/,Sold
"1573 De Rome Dr UNIT 4, San Jose, CA 95131",95131,1218000.0,Sold 11/21/2018,-1,-1.0,CONDO,3600,203992.0,0,,,37.372,-121.8776,https://www.zillow.com/homedetails/1573-De-Rome-Dr-UNIT-4-San-Jose-CA-95131/250935981_zpid/,Sold
"1015 Abruzzo Ln UNIT 2, San Jose, CA 95131",95131,927500.0,Sold 11/21/2018,-1,-1.0,CONDO,3600,265267.0,0,,,37.3714,-121.8788,https://www.zillow.com/homedetails/1015-Abruzzo-Ln-UNIT-2-San-Jose-CA-95131/250936010_zpid/,Sold
"1511 New Bedford Ct, San Jose, CA 95131",95131,190000.0,Sold 07/31/2018,1988,5340.0,SINGLE_FAMILY,3700,460947.0,4,2.5,1634,37.383923,-121.882123,https://www.zillow.com/homedetails/1511-New-Bedford-Ct-San-Jose-CA-95131/19566745_zpid/,Sold
"1021 Onofrio Ln UNIT 2, San Jose, CA 95131",95131,1121000.0,Sold 07/31/2018,-1,9819.0,CONDO,,1354691.0,0,,,37.3717,-121.8794,https://www.zillow.com/homedetails/1021-Onofrio-Ln-UNIT-2-San-Jose-CA-95131/249319061_zpid/,Sold
"1387 Marcello Dr, San Jose, CA 95131",95131,900000.0,Sold 07/31/2018,2007,1226.0,CONDO,3200,549358.0,2,2.0,1307,37.391084,-121.890304,https://www.zillow.com/homedetails/1387-Marcello-Dr-San-Jose-CA-95131/82948908_zpid/,Sold
"2151 Oakland Rd SPC 590, San Jose, CA 95131",95131,325000.0,Sold 07/31/2018,1989,-1.0,MANUFACTURED,3610,,4,3.0,1800,37.40036,-121.906739,https://www.zillow.com/homedetails/2151-Oakland-Rd-SPC-590-San-Jose-CA-95131/2091233171_zpid/,Sold
"1021 Onofrio Ln UNIT 1, San Jose, CA 95131",95131,1157290.0,Sold 07/27/2018,2018,-1.0,TOWNHOUSE,3800,,4,4.0,1857,37.3723,-121.8803,https://www.zillow.com/homedetails/1021-Onofrio-Ln-UNIT-1-San-Jose-CA-95131/2088428786_zpid/,Sold
"1611 Thorncrest Dr, San Jose, CA 95131",95131,789888.0,Sold 07/27/2018,1987,1200.0,CONDO,2750,544065.0,2,2.0,913,37.376893,-121.880429,https://www.zillow.com/homedetails/1611-Thorncrest-Dr-San-Jose-CA-95131/19560800_zpid/,Sold
"2050 Concourse Dr STE 78, San Jose, CA 95131",95131,520000.0,Sold 07/26/2018,-1,-1.0,HOME_TYPE_UNKNOWN,3500,,,,,37.396649,-121.889961,https://www.zillow.com/homedetails/2050-Concourse-Dr-STE-78-San-Jose-CA-95131/2132599580_zpid/,Sold
"1508 Briartree Dr, San Jose, CA 95131",95131,775000.0,Sold 07/26/2018,1987,1307.0,CONDO,2725,496442.0,2,2.0,922,37.375603,-121.881718,https://www.zillow.com/homedetails/1508-Briartree-Dr-San-Jose-CA-95131/19560826_zpid/,Sold
"2154 Stratton Pl, San Jose, CA 95131",95131,1187910.0,Sold 07/26/2018,1975,7453.0,SINGLE_FAMILY,3570,370466.0,4,2.0,1234,37.3885,-121.871718,https://www.zillow.com/homedetails/2154-Stratton-Pl-San-Jose-CA-95131/19565228_zpid/,Sold
"1361 Marcello #SJ95131, San Jose, CA 95131",95131,1030000.0,Sold 07/26/2018,-1,-1.0,SINGLE_FAMILY,3250,,0,,,37.390832,-121.890518,https://www.zillow.com/homedetails/1361-Marcello-SJ95131-San-Jose-CA-95131/2086128101_zpid/,Sold
"1525 Shumaker Way, San Jose, CA 95131",95131,480000.0,Sold 07/24/2018,1987,3500.0,SINGLE_FAMILY,2835,466012.0,2,2.0,849,37.39068,-121.875015,https://www.zillow.com/homedetails/1525-Shumaker-Way-San-Jose-CA-95131/19565123_zpid/,Sold
"1526 New Bedford Ct, San Jose, CA 95131",95131,1280000.0,Sold 07/17/2018,1988,7383.0,SINGLE_FAMILY,3750,428013.0,4,3.0,1822,37.384076,-121.88139,https://www.zillow.com/homedetails/1526-New-Bedford-Ct-San-Jose-CA-95131/19566739_zpid/,Sold
"1833 Sterling Lndg, San Jose, CA 95131",95131,1050000.0,Sold 07/16/2018,1994,823.0,TOWNHOUSE,3200,509292.0,2,3.0,1181,37.385608,-121.895651,https://www.zillow.com/homedetails/1833-Sterling-Lndg-San-Jose-CA-95131/19562964_zpid/,Sold
"1700 Fan St, San Jose, CA 95131",95131,1230000.0,Sold 07/13/2018,1989,2914.0,TOWNHOUSE,3895,387549.0,4,3.0,2009,37.374546,-121.876393,https://www.zillow.com/homedetails/1700-Fan-St-San-Jose-CA-95131/19561013_zpid/,Sold
"2496 Autumnvale Ave, San Jose, CA 95131",95131,1210000.0,Sold 07/13/2018,2008,1670.0,TOWNHOUSE,3590,575938.0,3,4.0,1771,37.404114,-121.884907,https://www.zillow.com/homedetails/2496-Autumnvale-Ave-San-Jose-CA-95131/89473461_zpid/,Sold
"2495 Jubilee Ln, San Jose, CA 95131",95131,530000.0,Sold 07/12/2018,1990,1771.0,CONDO,2535,410958.0,1,1.0,645,37.402565,-121.884885,https://www.zillow.com/homedetails/2495-Jubilee-Ln-San-Jose-CA-95131/19563406_zpid/,Sold
"1575 Four Oaks Cir, San Jose, CA 95131",95131,465000.0,Sold 07/12/2018,1986,1307.0,CONDO,2300,157156.0,1,1.0,676,37.390633,-121.871887,https://www.zillow.com/homedetails/1575-Four-Oaks-Cir-San-Jose-CA-95131/19564820_zpid/,Sold
"2162 Klassen Way, San Jose, CA 95131",95131,990000.0,Sold 07/11/2018,2009,1080.0,CONDO,3050,481004.0,2,3.0,1080,37.393527,-121.903615,https://www.zillow.com/homedetails/2162-Klassen-Way-San-Jose-CA-95131/89473465_zpid/,Sold
"1628 Valley Crest Dr, San Jose, CA 95131",95131,682500.0,Sold 07/11/2018,1987,3680.0,SINGLE_FAMILY,3300,274673.0,3,3.0,1491,37.375176,-121.879026,https://www.zillow.com/homedetails/1628-Valley-Crest-Dr-San-Jose-CA-95131/19560895_zpid/,Sold
"1552 Shore Dr, San Jose, CA 95131",95131,1336500.0,Sold 07/10/2018,2014,1742.0,SINGLE_FAMILY,3750,770117.0,3,3.0,1695,37.372547,-121.880599,https://www.zillow.com/homedetails/1552-Shore-Dr-San-Jose-CA-95131/122247911_zpid/,Sold
"1811 Wintersong Ct, San Jose, CA 95131",95131,1358000.0,Sold 07/10/2018,1975,5932.0,SINGLE_FAMILY,4000,504602.0,5,3.0,2422,37.376807,-121.871422,https://www.zillow.com/homedetails/1811-Wintersong-Ct-San-Jose-CA-95131/19566322_zpid/,Sold
"1361 Marcello Dr, San Jose, CA 95131",95131,1030000.0,Sold 07/10/2018,2010,1226.0,CONDO,3295,614103.0,2,3.0,1519,37.390832,-121.890517,https://www.zillow.com/homedetails/1361-Marcello-Dr-San-Jose-CA-95131/94699164_zpid/,Sold
"1311 Starglo Pl, San Jose, CA 95131",95131,1245000.0,Sold 07/06/2018,1993,884.0,TOWNHOUSE,3550,871854.0,3,2.5,1684,37.386982,-121.894488,https://www.zillow.com/homedetails/1311-Starglo-Pl-San-Jose-CA-95131/19563605_zpid/,Sold
"1953 Tia Pl, San Jose, CA 95131",95131,930000.0,Sold 07/05/2018,1971,1572.0,TOWNHOUSE,3200,312398.0,4,1.5,1320,37.379501,-121.870306,https://www.zillow.com/homedetails/1953-Tia-Pl-San-Jose-CA-95131/19566136_zpid/,Sold
"2151 Oakland Rd SPC 543, San Jose, CA 95131",95131,280000.0,Sold 07/05/2018,2001,-1.0,MANUFACTURED,3700,,4,2.0,1706,37.40036,-121.906739,https://www.zillow.com/homedetails/2151-Oakland-Rd-SPC-543-San-Jose-CA-95131/2089160155_zpid/,Sold
"1398 Sajak Ave, San Jose, CA 95131",95131,1663000.0,Sold 07/05/2018,1989,4182.0,SINGLE_FAMILY,4650,918107.0,4,3.0,2530,37.383301,-121.886331,https://www.zillow.com/homedetails/1398-Sajak-Ave-San-Jose-CA-95131/19561500_zpid/,Sold
"1030 Goldenstar Pl, San Jose, CA 95131",95131,1370000.0,Sold 07/02/2018,2014,736.0,TOWNHOUSE,3850,858055.0,4,3.5,1872,37.379379,-121.896986,https://www.zillow.com/homedetails/1030-Goldenstar-Pl-San-Jose-CA-95131/124745251_zpid/,Sold
"1023 Abruzzo Ln UNIT 6, San Jose, CA 95131",95131,1126500.0,Sold 07/02/2018,-1,9819.0,CONDO,,1354691.0,0,,,37.3714,-121.8788,https://www.zillow.com/homedetails/1023-Abruzzo-Ln-UNIT-6-San-Jose-CA-95131/249022563_zpid/,Sold
"1026 Abruzzo Ln UNIT 4, San Jose, CA 95131",95131,1047894.0,Sold 06/29/2018,-1,-1.0,TOWNHOUSE,3500,,4,3.5,1707,37.3714,-121.8788,https://www.zillow.com/homedetails/1026-Abruzzo-Ln-UNIT-4-San-Jose-CA-95131/2089155770_zpid/,Sold
"1026 Abruzzo Ln UNIT 5, San Jose, CA 95131",95131,1151000.0,Sold 06/29/2018,-1,9819.0,CONDO,,1354691.0,0,,,37.3714,-121.8788,https://www.zillow.com/homedetails/1026-Abruzzo-Ln-UNIT-5-San-Jose-CA-95131/249022565_zpid/,Sold
"1517 Briartree Dr, San Jose, CA 95131",95131,800000.0,Sold 06/28/2018,1987,1200.0,CONDO,2750,212987.0,2,2.0,913,37.375514,-121.882297,https://www.zillow.com/homedetails/1517-Briartree-Dr-San-Jose-CA-95131/19560815_zpid/,Sold
"2151 Oakland Rd SPC 218, San Jose, CA 95131",95131,230000.0,Sold 06/28/2018,2008,-1.0,MANUFACTURED,3500,,3,2.0,1416,37.40036,-121.906739,https://www.zillow.com/homedetails/2151-Oakland-Rd-SPC-218-San-Jose-CA-95131/2089365058_zpid/,Sold
"1643 Valley Crest Dr, San Jose, CA 95131",95131,1395000.0,Sold 06/27/2018,1987,3484.0,SINGLE_FAMILY,3850,399397.0,4,2.5,1828,37.375646,-121.879061,https://www.zillow.com/homedetails/1643-Valley-Crest-Dr-San-Jose-CA-95131/19560703_zpid/,Sold
"1026 Abruzzo Ln UNIT 3, San Jose, CA 95131",95131,889972.0,Sold 06/27/2018,-1,-1.0,TOWNHOUSE,3500,,2,2.0,1370,37.3723,-121.8803,https://www.zillow.com/homedetails/1026-Abruzzo-Ln-UNIT-3-San-Jose-CA-95131/2088329531_zpid/,Sold
"1968 Bright Willow Cir, San Jose, CA 95131",95131,1520000.0,Sold 06/26/2018,2005,3715.0,SINGLE_FAMILY,4200,803552.0,5,4.0,2045,37.391832,-121.902008,https://www.zillow.com/homedetails/1968-Bright-Willow-Cir-San-Jose-CA-95131/64633819_zpid/,Sold
"2284 Fallingtree Dr, San Jose, CA 95131",95131,1225000.0,Sold 06/26/2018,1973,5938.0,SINGLE_FAMILY,3600,472907.0,4,2.0,1234,37.396504,-121.882508,https://www.zillow.com/homedetails/2284-Fallingtree-Dr-San-Jose-CA-95131/19562291_zpid/,Sold
"1609 Mission Springs Cir, San Jose, CA 95131",95131,1500000.0,Sold 06/26/2018,1989,3500.0,SINGLE_FAMILY,4200,550878.0,4,3.0,1768,37.383754,-121.887351,https://www.zillow.com/homedetails/1609-Mission-Springs-Cir-San-Jose-CA-95131/19561694_zpid/,Sold
"1589 Fairway Green Cir, San Jose, CA 95131",95131,990000.0,Sold 06/26/2018,1988,1742.0,TOWNHOUSE,3104,660568.0,2,2.0,1098,37.378823,-121.884275,https://www.zillow.com/homedetails/1589-Fairway-Green-Cir-San-Jose-CA-95131/19561190_zpid/,Sold
"1792 Camino Leonor, San Jose, CA 95131",95131,925000.0,Sold 06/25/2018,2006,1422.0,APARTMENT,3200,463636.0,2,2.0,1422,37.390135,-121.888886,https://www.zillow.com/homedetails/1792-Camino-Leonor-San-Jose-CA-95131/72691638_zpid/,Sold
"1121 Homer Cmn, San Jose, CA 95131",95131,1190000.0,Video Walkthrough,1996,888.0,CONDO,3500,830222.0,3,3.0,1651,37.385033,-121.897028,https://www.zillow.com/homedetails/1121-Homer-Cmn-San-Jose-CA-95131/19563127_zpid/,Sold
"2151 Oakland Rd SPC 266, San Jose, CA 95131",95131,152000.0,Sold 10/22/2018,1972,-1.0,MANUFACTURED,3230,,2,2.0,1440,37.4,-121.9067,https://www.zillow.com/homedetails/2151-Oakland-Rd-SPC-266-San-Jose-CA-95131/2130781289_zpid/,Sold
"2151 Oakland Rd SPC 404, San Jose, CA 95131",95131,220000.0,Sold 10/18/2018,1999,-1.0,MANUFACTURED,3467,,3,2.0,1296,37.40036,-121.906739,https://www.zillow.com/homedetails/2151-Oakland-Rd-SPC-404-San-Jose-CA-95131/2140135180_zpid/,Sold
"1448 Stanton Way, San Jose, CA 95131",95131,1570000.0,Sold 10/15/2018,1993,4356.0,SINGLE_FAMILY,4300,1326510.0,4,3.0,2234,37.378051,-121.885642,https://www.zillow.com/homedetails/1448-Stanton-Way-San-Jose-CA-95131/19561328_zpid/,Sold
"1551 Carnavon Way, San Jose, CA 95131",95131,1150000.0,Sold 10/15/2018,1987,2840.0,SINGLE_FAMILY,3600,771782.0,3,2.5,1514,37.38302,-121.88803,https://www.zillow.com/homedetails/1551-Carnavon-Way-San-Jose-CA-95131/19560484_zpid/,Sold
"1486 Geyser Dr, San Jose, CA 95131",95131,1135000.0,Sold 10/11/2018,1994,3841.0,SINGLE_FAMILY,3590,905315.0,3,2.5,1333,37.383411,-121.88334,https://www.zillow.com/homedetails/1486-Geyser-Dr-San-Jose-CA-95131/19561771_zpid/,Sold
"1558 Thornbriar Dr, San Jose, CA 95131",95131,775000.0,Sold 10/11/2018,1987,958.0,CONDO,2750,495586.0,2,2.0,913,37.376396,-121.880918,https://www.zillow.com/homedetails/1558-Thornbriar-Dr-San-Jose-CA-95131/19560754_zpid/,Sold
"2483 Alveswood Cir, San Jose, CA 95131",95131,725000.0,Sold 10/11/2018,1989,805.0,CONDO,2950,286566.0,2,2.0,1040,37.403214,-121.883238,https://www.zillow.com/homedetails/2483-Alveswood-Cir-San-Jose-CA-95131/19563263_zpid/,Sold
"1011 Giacomo Ln UNIT 2, San Jose, CA 95131",95131,925000.0,Sold 10/11/2018,-1,9132.0,CONDO,,1259908.0,0,,,37.3721,-121.8782,https://www.zillow.com/homedetails/1011-Giacomo-Ln-UNIT-2-San-Jose-CA-95131/250554890_zpid/,Sold
"1011 Giacomo Ln UNIT 2, San Jose, CA 95131",95131,925000.0,Sold 10/11/2018,-1,-1.0,CONDO,3800,183586.0,0,,,37.3721,-121.8782,https://www.zillow.com/homedetails/1011-Giacomo-Ln-UNIT-2-San-Jose-CA-95131/250641867_zpid/,Sold
"1471 Chavez Way, San Jose, CA 95131",95131,500000.0,Sold 10/09/2018,1993,3619.0,SINGLE_FAMILY,3470,428460.0,3,2.5,1333,37.383774,-121.884567,https://www.zillow.com/homedetails/1471-Chavez-Way-San-Jose-CA-95131/19561791_zpid/,Sold
"2204 Beech Cir, San Jose, CA 95131",95131,1000000.0,Sold 10/09/2018,2008,1742.0,TOWNHOUSE,3500,660174.0,3,3.0,1536,37.403954,-121.884463,https://www.zillow.com/homedetails/2204-Beech-Cir-San-Jose-CA-95131/89474673_zpid/,Sold
"2065 Oakland Rd, San Jose, CA 95131",95131,885000.0,Sold 10/09/2018,2007,2025.0,CONDO,3150,580942.0,2,3.0,1213,37.394499,-121.902083,https://www.zillow.com/homedetails/2065-Oakland-Rd-San-Jose-CA-95131/82949320_zpid/,Sold
"1017 Gabbiano Ln UNIT 3, San Jose, CA 95131",95131,1275500.0,Sold 10/05/2018,-1,5655.0,CONDO,,780199.0,0,,,37.3722,-121.8787,https://www.zillow.com/homedetails/1017-Gabbiano-Ln-UNIT-3-San-Jose-CA-95131/250270262_zpid/,Sold
"1017 Gabbiano Ln UNIT 1, San Jose, CA 95131",95131,1275500.0,Sold 10/05/2018,-1,-1.0,CONDO,3600,265268.0,0,,,37.3722,-121.8787,https://www.zillow.com/homedetails/1017-Gabbiano-Ln-UNIT-1-San-Jose-CA-95131/250641900_zpid/,Sold
"2061 Croner Pl, San Jose, CA 95131",95131,162000.0,Sold 10/03/2018,2004,3096.0,SINGLE_FAMILY,4200,964851.0,3,2.5,2082,37.389341,-121.875677,https://www.zillow.com/homedetails/2061-Croner-Pl-San-Jose-CA-95131/64547926_zpid/,Sold
"1452 Maxwell Way, San Jose, CA 95131",95131,1652888.0,Sold 10/02/2018,1994,4748.0,SINGLE_FAMILY,4545,840100.0,5,3.0,2551,37.377052,-121.886524,https://www.zillow.com/homedetails/1452-Maxwell-Way-San-Jose-CA-95131/19561281_zpid/,Sold
"1782 Sageland Dr, San Jose, CA 95131",95131,1105000.0,Sold 10/02/2018,1975,5998.0,SINGLE_FAMILY,3200,79952.0,3,2.0,1041,37.381627,-121.874606,https://www.zillow.com/homedetails/1782-Sageland-Dr-San-Jose-CA-95131/19565963_zpid/,Sold
"2116 Imwalle Ct, San Jose, CA 95131",95131,1000000.0,Sold 10/01/2018,1970,9478.0,SINGLE_FAMILY,3395,326461.0,3,2.0,1206,37.382272,-121.867628,https://www.zillow.com/homedetails/2116-Imwalle-Ct-San-Jose-CA-95131/19564471_zpid/,Sold
"1683 Flickinger Ave, San Jose, CA 95131",95131,1130000.0,Sold 09/28/2018,1974,6804.0,SINGLE_FAMILY,3600,405224.0,4,2.0,1234,37.391724,-121.880357,https://www.zillow.com/homedetails/1683-Flickinger-Ave-San-Jose-CA-95131/19562846_zpid/,Sold
"1584 Myrick Ct, San Jose, CA 95131",95131,1100000.0,Sold 09/28/2018,1987,3044.0,SINGLE_FAMILY,3600,664757.0,4,3.0,1566,37.392095,-121.876768,https://www.zillow.com/homedetails/1584-Myrick-Ct-San-Jose-CA-95131/19565154_zpid/,Sold
"1563 Mercado Way, San Jose, CA 95131",95131,1200000.0,Sold 09/28/2018,2014,1685.0,SINGLE_FAMILY,3600,819213.0,3,3.0,1693,37.372246,-121.880107,https://www.zillow.com/homedetails/1563-Mercado-Way-San-Jose-CA-95131/122249306_zpid/,Sold
"1033 Gabbiano Ln UNIT 3, San Jose, CA 95131",95131,925000.0,Sold 09/28/2018,2018,-1.0,CONDO,3600,434804.0,2,2.0,1371,37.3722,-121.8787,https://www.zillow.com/homedetails/1033-Gabbiano-Ln-UNIT-3-San-Jose-CA-95131/250642056_zpid/,Sold
"1017 Gabbiano Ln UNIT 2, San Jose, CA 95131",95131,1011000.0,Sold 09/27/2018,-1,-1.0,CONDO,3600,265267.0,0,,,37.3722,-121.8787,https://www.zillow.com/homedetails/1017-Gabbiano-Ln-UNIT-2-San-Jose-CA-95131/250641999_zpid/,Sold
"1766 Camino Leonor, San Jose, CA 95131",95131,755000.0,Sold 09/26/2018,2006,1498.0,CONDO,3150,542405.0,1,1.5,1415,37.390135,-121.888886,https://www.zillow.com/homedetails/1766-Camino-Leonor-San-Jose-CA-95131/79841283_zpid/,Sold
"1032 Abruzzo Ln UNIT 4, San Jose, CA 95131",95131,1009000.0,Sold 09/25/2018,-1,9702.0,CONDO,,1338549.0,0,,,37.3714,-121.8788,https://www.zillow.com/homedetails/1032-Abruzzo-Ln-UNIT-4-San-Jose-CA-95131/245508023_zpid/,Sold
"1025 Bellante Ln UNIT 2, San Jose, CA 95131",95131,950000.0,Sold 09/24/2018,-1,-1.0,CONDO,3600,218366.0,0,,,37.3714,-121.8797,https://www.zillow.com/homedetails/1025-Bellante-Ln-UNIT-2-San-Jose-CA-95131/250642060_zpid/,Sold
"2151 Oakland Rd SPC 467, San Jose, CA 95131",95131,190000.0,Sold 09/24/2018,2005,-1.0,MANUFACTURED,3400,,3,2.0,1238,37.40036,-121.906739,https://www.zillow.com/homedetails/2151-Oakland-Rd-SPC-467-San-Jose-CA-95131/2131859257_zpid/,Sold
"1353 Aberford Dr, San Jose, CA 95131",95131,1176000.0,Sold 09/21/2018,1971,6033.0,SINGLE_FAMILY,3500,823885.0,4,2.0,1305,37.386683,-121.868749,https://www.zillow.com/homedetails/1353-Aberford-Dr-San-Jose-CA-95131/19564702_zpid/,Sold
"1771 Sageland Dr, San Jose, CA 95131",95131,200000.0,Sold 09/21/2018,1975,6000.0,SINGLE_FAMILY,3200,340611.0,3,2.0,1041,37.381553,-121.875338,https://www.zillow.com/homedetails/1771-Sageland-Dr-San-Jose-CA-95131/19565880_zpid/,Sold
"1542 Meadow Ridge Cir, San Jose, CA 95131",95131,685000.0,Sold 09/21/2018,1985,435.0,APARTMENT,2700,409398.0,2,1.0,896,37.381628,-121.884176,https://www.zillow.com/homedetails/1542-Meadow-Ridge-Cir-San-Jose-CA-95131/19560255_zpid/,Sold
"1371 Marcello Dr, San Jose, CA 95131",95131,1050000.0,Sold 09/20/2018,2007,1226.0,CONDO,3250,559131.0,2,2.5,1519,37.390805,-121.890072,https://www.zillow.com/homedetails/1371-Marcello-Dr-San-Jose-CA-95131/82948441_zpid/,Sold
"1053 Dewberry Pl UNIT 404, San Jose, CA 95131",95131,1388000.0,Sold 09/20/2018,2015,1803.0,CONDO,3600,1039240.0,4,3.0,2147,37.380165,-121.897742,https://www.zillow.com/homedetails/1053-Dewberry-Pl-UNIT-404-San-Jose-CA-95131/124744772_zpid/,Sold
"1011 Giacomo Ln UNIT 5, San Jose, CA 95131",95131,989000.0,Sold 09/19/2018,-1,-1.0,CONDO,3800,183587.0,0,,,37.3721,-121.8782,https://www.zillow.com/homedetails/1011-Giacomo-Ln-UNIT-5-San-Jose-CA-95131/250641941_zpid/,Sold
"1287 Marcello Dr, San Jose, CA 95131",95131,710000.0,Sold 09/17/2018,2006,1498.0,APARTMENT,3200,538682.0,1,1.5,1415,37.390446,-121.890726,https://www.zillow.com/homedetails/1287-Marcello-Dr-San-Jose-CA-95131/79844314_zpid/,Sold
"2119 Oakland Rd, San Jose, CA 95131",95131,1151000.0,Sold 09/17/2018,2009,701.0,TOWNHOUSE,3300,565747.0,3,2.5,1376,37.395671,-121.902351,https://www.zillow.com/homedetails/2119-Oakland-Rd-San-Jose-CA-95131/94699063_zpid/,Sold
"1723 Flickinger Ct, San Jose, CA 95131",95131,626000.0,Sold 09/14/2018,1990,863.0,CONDO,2750,491588.0,2,2.0,852,37.39788,-121.884097,https://www.zillow.com/homedetails/1723-Flickinger-Ct-San-Jose-CA-95131/19562324_zpid/,Sold
"1186 Pembroke Dr, San Jose, CA 95131",95131,1105000.0,Sold 09/14/2018,1971,6220.0,SINGLE_FAMILY,3600,209367.0,4,2.0,1393,37.383402,-121.865599,https://www.zillow.com/homedetails/1186-Pembroke-Dr-San-Jose-CA-95131/19564268_zpid/,Sold
"1865 Bright Willow Cir, San Jose, CA 95131",95131,1550000.0,Sold 09/14/2018,2005,5449.0,SINGLE_FAMILY,4300,1123631.0,4,2.5,2150,37.392246,-121.903397,https://www.zillow.com/homedetails/1865-Bright-Willow-Cir-San-Jose-CA-95131/64495572_zpid/,Sold
"1253 Avenida Las Brisas, San Jose, CA 95131",95131,1000000.0,Sold 09/12/2018,2006,10511.0,TOWNHOUSE,3200,644774.0,2,2.0,1307,37.389879,-121.889861,https://www.zillow.com/homedetails/1253-Avenida-Las-Brisas-San-Jose-CA-95131/79846871_zpid/,Sold
"1111 Avenida Benito, San Jose, CA 95131",95131,1285000.0,Sold 09/12/2018,2006,875.0,TOWNHOUSE,3900,837114.0,3,3.0,1739,37.388611,-121.89282,https://www.zillow.com/homedetails/1111-Avenida-Benito-San-Jose-CA-95131/79842000_zpid/,Sold
"1254 Fairweather Lake Cmn, San Jose, CA 95131",95131,968000.0,Sold 09/11/2018,1996,945.0,TOWNHOUSE,3200,264231.0,2,2.5,1181,37.386241,-121.894881,https://www.zillow.com/homedetails/1254-Fairweather-Lake-Cmn-San-Jose-CA-95131/19563018_zpid/,Sold
"1757 Parkview Green Cir, San Jose, CA 95131",95131,643000.0,Sold 09/11/2018,1988,1740.0,CONDO,2400,255246.0,1,1.0,719,37.378896,-121.882674,https://www.zillow.com/homedetails/1757-Parkview-Green-Cir-San-Jose-CA-95131/19561583_zpid/,Sold
"2403 Jubilee Ln, San Jose, CA 95131",95131,695000.0,Sold 09/10/2018,1990,1771.0,CONDO,2801,561816.0,2,2.0,966,37.401749,-121.885536,https://www.zillow.com/homedetails/2403-Jubilee-Ln-San-Jose-CA-95131/19563448_zpid/,Sold
"1841 Mandel Ct, San Jose, CA 95131",95131,1000000.0,Sold 09/10/2018,1974,6090.0,SINGLE_FAMILY,3500,311461.0,3,2.0,1372,37.382823,-121.877027,https://www.zillow.com/homedetails/1841-Mandel-Ct-San-Jose-CA-95131/19565791_zpid/,Sold
"1325 Hapland Ct, San Jose, CA 95131",95131,1050000.0,Sold 09/10/2018,1975,8176.0,SINGLE_FAMILY,3600,241478.0,4,2.0,1578,37.381912,-121.875607,https://www.zillow.com/homedetails/1325-Hapland-Ct-San-Jose-CA-95131/19565900_zpid/,Sold
"1605 Fairway Green Cir, San Jose, CA 95131",95131,1145000.0,Sold 09/07/2018,1988,1742.0,CONDO,3500,727272.0,3,3.0,1672,37.378852,-121.884905,https://www.zillow.com/homedetails/1605-Fairway-Green-Cir-San-Jose-CA-95131/19561182_zpid/,Sold
"1308 Starglo Pl, San Jose, CA 95131",95131,905000.0,Sold 09/07/2018,1993,435.0,CONDO,2900,364282.0,2,2.0,1006,37.387027,-121.893794,https://www.zillow.com/homedetails/1308-Starglo-Pl-San-Jose-CA-95131/19563662_zpid/,Sold
"1379 Mercado Way, San Jose, CA 95131",95131,870000.0,Sold 09/07/2018,2014,435.0,CONDO,3100,635983.0,2,2.0,1171,37.370996,-121.881809,https://www.zillow.com/homedetails/1379-Mercado-Way-San-Jose-CA-95131/124743902_zpid/,Sold
"1599 Mercado Way, San Jose, CA 95131",95131,1220000.0,Sold 09/07/2018,2014,1742.0,SINGLE_FAMILY,3600,815788.0,3,3.0,1693,37.3725,-121.879803,https://www.zillow.com/homedetails/1599-Mercado-Way-San-Jose-CA-95131/122063657_zpid/,Sold
"1284 Tofts Dr, San Jose, CA 95131",95131,1130000.0,Sold 09/06/2018,1971,6743.0,SINGLE_FAMILY,3530,298564.0,4,3.0,1380,37.386402,-121.866369,https://www.zillow.com/homedetails/1284-Tofts-Dr-San-Jose-CA-95131/19564290_zpid/,Sold
"1360 Neleigh Pl, San Jose, CA 95131",95131,900000.0,Sold 09/06/2018,2014,435.0,CONDO,3100,620777.0,2,2.0,1171,37.371215,-121.882132,https://www.zillow.com/homedetails/1360-Neleigh-Pl-San-Jose-CA-95131/124743460_zpid/,Sold
"1386 Aberford Dr, San Jose, CA 95131",95131,900000.0,Sold 09/04/2018,1971,6000.0,SINGLE_FAMILY,3400,250900.0,3,2.0,1277,37.387649,-121.869029,https://www.zillow.com/homedetails/1386-Aberford-Dr-San-Jose-CA-95131/19564692_zpid/,Sold
"2190 Beech Cir, San Jose, CA 95131",95131,1192000.0,Sold 08/31/2018,2008,805.0,TOWNHOUSE,3800,635294.0,3,3.5,1812,37.403647,-121.884733,https://www.zillow.com/homedetails/2190-Beech-Cir-San-Jose-CA-95131/89461933_zpid/,Sold
"1434 Rocklin Ct, San Jose, CA 95131",95131,710000.0,Sold 08/31/2018,1984,1045.0,SINGLE_FAMILY,2720,220664.0,2,1.0,896,37.381557,-121.883187,https://www.zillow.com/homedetails/1434-Rocklin-Ct-San-Jose-CA-95131/19560231_zpid/,Sold
"1025 Bellante Ln UNIT 7, San Jose, CA 95131",95131,1325500.0,Sold 08/31/2018,-1,-1.0,CONDO,3700,218365.0,0,,,37.3714,-121.8797,https://www.zillow.com/homedetails/1025-Bellante-Ln-UNIT-7-San-Jose-CA-95131/250642008_zpid/,Sold
"1042 Rock Ave, San Jose, CA 95131",95131,1500000.0,Sold 08/31/2018,2007,3206.0,SINGLE_FAMILY,4200,1056277.0,4,3.0,2150,37.39237,-121.903963,https://www.zillow.com/homedetails/1042-Rock-Ave-San-Jose-CA-95131/82953412_zpid/,Sold
"1025 Bellante Ln, San Jose, CA 95131",95131,1254000.0,Sold 08/31/2018,-1,-1.0,CONDO,3718,218366.0,0,,,37.3714,-121.8797,https://www.zillow.com/homedetails/1025-Bellante-Ln-San-Jose-CA-95131/250641984_zpid/,Sold
"1553 Timber Creek Dr, San Jose, CA 95131",95131,1240000.0,Sold 08/30/2018,1987,3397.0,SINGLE_FAMILY,3700,987360.0,4,3.0,1793,37.391682,-121.875762,https://www.zillow.com/homedetails/1553-Timber-Creek-Dr-San-Jose-CA-95131/19565077_zpid/,Sold
"1020 Bellante #5, San Jose, CA 95131",95131,950000.0,Sold 08/29/2018,-1,-1.0,CONDO,3313,,2,2.0,1171,37.3866,-121.8931,https://www.zillow.com/homedetails/1020-Bellante-5-San-Jose-CA-95131/2087995011_zpid/,Sold
"1020 Bellante Ln UNIT 4, San Jose, CA 95131",95131,983000.0,Sold 08/29/2018,2018,9819.0,CONDO,,1354691.0,4,4.0,1707,37.3714,-121.8797,https://www.zillow.com/homedetails/1020-Bellante-Ln-UNIT-4-San-Jose-CA-95131/249677832_zpid/,Sold
"1025 Bellante Ln UNIT 2, San Jose, CA 95131",95131,1313500.0,Sold 08/28/2018,-1,10862.0,CONDO,,1498590.0,0,,,37.3714,-121.8797,https://www.zillow.com/homedetails/1025-Bellante-Ln-UNIT-2-San-Jose-CA-95131/250563529_zpid/,Sold
"1025 Bellante Ln UNIT 5, San Jose, CA 95131",95131,1040000.0,Sold 08/28/2018,-1,-1.0,CONDO,3800,218366.0,0,,,37.3714,-121.8797,https://www.zillow.com/homedetails/1025-Bellante-Ln-UNIT-5-San-Jose-CA-95131/250641839_zpid/,Sold
"1020 Bellante Ln UNIT 1, San Jose, CA 95131",95131,1033000.0,Sold 08/27/2018,-1,-1.0,CONDO,3800,218366.0,0,,,37.3714,-121.8797,https://www.zillow.com/homedetails/1020-Bellante-Ln-UNIT-1-San-Jose-CA-95131/250642004_zpid/,Sold
"1020 Bellante Ln UNIT 4, San Jose, CA 95131",95131,1185500.0,Sold 08/27/2018,-1,-1.0,CONDO,3800,197398.0,0,,,37.3714,-121.8797,https://www.zillow.com/homedetails/1020-Bellante-Ln-UNIT-4-San-Jose-CA-95131/250642003_zpid/,Sold
"2439 Jubilee Ln, San Jose, CA 95131",95131,552000.0,Sold 08/24/2018,1990,1771.0,CONDO,2515,181293.0,1,1.0,645,37.402125,-121.885507,https://www.zillow.com/homedetails/2439-Jubilee-Ln-San-Jose-CA-95131/19563438_zpid/,Sold
"1492 Gordy Dr, San Jose, CA 95131",95131,496000.0,Sold 08/24/2018,1988,5250.0,SINGLE_FAMILY,3650,662444.0,4,2.5,1634,37.385341,-121.880684,https://www.zillow.com/homedetails/1492-Gordy-Dr-San-Jose-CA-95131/19566769_zpid/,Sold
"1020 Bellante Ln UNIT 7, San Jose, CA 95131",95131,1231500.0,Sold 08/24/2018,-1,-1.0,CONDO,3800,197397.0,0,,,37.3714,-121.8797,https://www.zillow.com/homedetails/1020-Bellante-Ln-UNIT-7-San-Jose-CA-95131/250641964_zpid/,Sold
"1242 Oregold Pl, San Jose, CA 95131",95131,916000.0,Sold 08/23/2018,1993,1306.0,CONDO,3200,671061.0,2,2.0,1157,37.386092,-121.893762,https://www.zillow.com/homedetails/1242-Oregold-Pl-San-Jose-CA-95131/19563630_zpid/,Sold
"2121 Sierra Rd, San Jose, CA 95131",95131,1705000.0,Sold 08/22/2018,1969,6600.0,MULTI_FAMILY,3250,1118614.0,,,2748,37.387435,-121.871382,https://www.zillow.com/homedetails/2121-Sierra-Rd-San-Jose-CA-95131/19670036_zpid/,Sold
"1081 Harebell Pl, San Jose, CA 95131",95131,1180000.0,Sold 08/17/2018,2015,644.0,TOWNHOUSE,3500,831866.0,3,3.0,1622,37.379191,-121.896161,https://www.zillow.com/homedetails/1081-Harebell-Pl-San-Jose-CA-95131/166731469_zpid/,Sold
"1252 Littleton Dr, San Jose, CA 95131",95131,1440000.0,Sold 08/17/2018,1990,4042.0,SINGLE_FAMILY,4200,1009188.0,4,3.0,1918,37.371607,-121.884607,https://www.zillow.com/homedetails/1252-Littleton-Dr-San-Jose-CA-95131/19562105_zpid/,Sold
"719 Star Jasmine Ct, San Jose, CA 95131",95131,3690.0,12 days ago,1997,910.0,TOWNHOUSE,3550,629600.0,3,2.5,1509,37.387484,-121.888336,https://www.zillow.com/homedetails/719-Star-Jasmine-Ct-San-Jose-CA-95131/19563774_zpid/,Sold
"1397 Joyner Ct, San Jose, CA 95131",95131,1206000.0,Sold 08/15/2018,1973,6000.0,SINGLE_FAMILY,3700,686341.0,4,2.0,1666,37.383889,-121.876826,https://www.zillow.com/homedetails/1397-Joyner-Ct-San-Jose-CA-95131/19565663_zpid/,Sold
"2472 Autumnvale Ave, San Jose, CA 95131",95131,1106800.0,Sold 08/14/2018,2008,644.0,TOWNHOUSE,3490,760508.0,3,3.0,1536,37.40368,-121.885345,https://www.zillow.com/homedetails/2472-Autumnvale-Ave-San-Jose-CA-95131/89472976_zpid/,Sold
"1361 Mich Bluff Dr, San Jose, CA 95131",95131,1500000.0,Sold 08/14/2018,1970,6000.0,SINGLE_FAMILY,3395,487559.0,3,2.0,1186,37.385079,-121.871925,https://www.zillow.com/homedetails/1361-Mich-Bluff-Dr-San-Jose-CA-95131/19564523_zpid/,Sold
"1770 Fumia Ct, San Jose, CA 95131",95131,1650000.0,Sold 08/13/2018,1997,3840.0,SINGLE_FAMILY,4895,1050504.0,5,2.5,2464,37.390103,-121.897971,https://www.zillow.com/homedetails/1770-Fumia-Ct-San-Jose-CA-95131/19563831_zpid/,Sold
"1141 Waterton Ln, San Jose, CA 95131",95131,740000.0,Sold 08/13/2018,1979,1400.0,CONDO,2700,179572.0,2,1.0,1107,37.376364,-121.872575,https://www.zillow.com/homedetails/1141-Waterton-Ln-San-Jose-CA-95131/19566592_zpid/,Sold
"1958 Brater Ct, San Jose, CA 95131",95131,1630000.0,Sold 08/10/2018,1971,5819.0,SINGLE_FAMILY,4700,1017781.0,4,4.0,2577,37.383741,-121.87321,https://www.zillow.com/homedetails/1958-Brater-Ct-San-Jose-CA-95131/19565981_zpid/,Sold
"1812 Wintersong Ct, San Jose, CA 95131",95131,402727.0,Sold 08/10/2018,1975,7200.0,SINGLE_FAMILY,3700,328616.0,4,2.0,1843,37.376494,-121.870911,https://www.zillow.com/homedetails/1812-Wintersong-Ct-San-Jose-CA-95131/19566309_zpid/,Sold
"2151 Oakland Rd SPC 3, San Jose, CA 95131",95131,260000.0,Sold 08/09/2018,2004,-1.0,MANUFACTURED,3500,,3,2.0,1596,37.40036,-121.906739,https://www.zillow.com/homedetails/2151-Oakland-Rd-SPC-3-San-Jose-CA-95131/2089635132_zpid/,Sold
"1822 Camino Leonor, San Jose, CA 95131",95131,965000.0,Sold 08/07/2018,2007,1226.0,CONDO,3200,487012.0,2,2.0,1422,37.390515,-121.889126,https://www.zillow.com/homedetails/1822-Camino-Leonor-San-Jose-CA-95131/82952340_zpid/,Sold
"1673 Goldentree Dr, San Jose, CA 95131",95131,1010000.0,Sold 08/06/2018,1973,5662.0,SINGLE_FAMILY,3200,98831.0,3,2.0,1041,37.392977,-121.880451,https://www.zillow.com/homedetails/1673-Goldentree-Dr-San-Jose-CA-95131/19562769_zpid/,Sold
"2151 Oakland Rd SPC 583, San Jose, CA 95131",95131,169900.0,Sold 08/03/2018,1972,-1.0,MANUFACTURED,3360,,2,2.0,1120,37.40036,-121.906739,https://www.zillow.com/homedetails/2151-Oakland-Rd-SPC-583-San-Jose-CA-95131/2142404351_zpid/,Sold
"1022 Onofrio Ln UNIT 6, San Jose, CA 95131",95131,1207500.0,Sold 08/03/2018,-1,9819.0,CONDO,,1354691.0,0,,,37.3717,-121.8794,https://www.zillow.com/homedetails/1022-Onofrio-Ln-UNIT-6-San-Jose-CA-95131/249297946_zpid/,Sold
"1666 Pinetree Ct, San Jose, CA 95131",95131,1160000.0,Sold 08/02/2018,1974,7405.0,SINGLE_FAMILY,3600,359177.0,4,2.0,1740,37.390349,-121.881102,https://www.zillow.com/homedetails/1666-Pinetree-Ct-San-Jose-CA-95131/19562802_zpid/,Sold
"1026 Abruzzo #1, San Jose, CA 95131",95131,1150000.0,Sold 08/01/2018,-1,-1.0,TOWNHOUSE,3800,,3,3.0,1890,37.3866,-121.8931,https://www.zillow.com/homedetails/1026-Abruzzo-1-San-Jose-CA-95131/2088020285_zpid/,Sold
"1855 Silkwood Ln, San Jose, CA 95131",95131,1380000.0,Sold 07/31/2018,2005,3210.0,SINGLE_FAMILY,3950,1012560.0,3,2.5,1828,37.390807,-121.903752,https://www.zillow.com/homedetails/1855-Silkwood-Ln-San-Jose-CA-95131/64869638_zpid/,Sold
"1010 Goldenstar Pl, San Jose, CA 95131",95131,1320000.0,Sold 07/31/2018,2014,601.0,TOWNHOUSE,3800,770966.0,3,4.0,1718,37.379379,-121.897377,https://www.zillow.com/homedetails/1010-Goldenstar-Pl-San-Jose-CA-95131/124742293_zpid/,Sold
"1387 Marcello Dr, San Jose, CA 95131",95131,900000.0,Sold 07/31/2018,2007,1226.0,CONDO,3200,549358.0,2,2.0,1307,37.391084,-121.890304,https://www.zillow.com/homedetails/1387-Marcello-Dr-San-Jose-CA-95131/82948908_zpid/,Sold
"1021 Onofrio Ln UNIT 2, San Jose, CA 95131",95131,1121000.0,Sold 07/31/2018,-1,9819.0,CONDO,,1354691.0,0,,,37.3717,-121.8794,https://www.zillow.com/homedetails/1021-Onofrio-Ln-UNIT-2-San-Jose-CA-95131/249319061_zpid/,Sold
"2151 Oakland Rd SPC 590, San Jose, CA 95131",95131,325000.0,Sold 07/31/2018,1989,-1.0,MANUFACTURED,3610,,4,3.0,1800,37.40036,-121.906739,https://www.zillow.com/homedetails/2151-Oakland-Rd-SPC-590-San-Jose-CA-95131/2091233171_zpid/,Sold
"1511 New Bedford Ct, San Jose, CA 95131",95131,190000.0,Sold 07/31/2018,1988,5340.0,SINGLE_FAMILY,3700,460947.0,4,2.5,1634,37.383923,-121.882123,https://www.zillow.com/homedetails/1511-New-Bedford-Ct-San-Jose-CA-95131/19566745_zpid/,Sold
"1021 Onofrio Ln UNIT 1, San Jose, CA 95131",95131,1157290.0,Sold 07/27/2018,2018,-1.0,TOWNHOUSE,3800,,4,4.0,1857,37.3723,-121.8803,https://www.zillow.com/homedetails/1021-Onofrio-Ln-UNIT-1-San-Jose-CA-95131/2088428786_zpid/,Sold
"1611 Thorncrest Dr, San Jose, CA 95131",95131,789888.0,Sold 07/27/2018,1987,1200.0,CONDO,2750,544065.0,2,2.0,913,37.376893,-121.880429,https://www.zillow.com/homedetails/1611-Thorncrest-Dr-San-Jose-CA-95131/19560800_zpid/,Sold
"2050 Concourse Dr STE 78, San Jose, CA 95131",95131,520000.0,Sold 07/26/2018,-1,-1.0,HOME_TYPE_UNKNOWN,3500,,,,,37.396649,-121.889961,https://www.zillow.com/homedetails/2050-Concourse-Dr-STE-78-San-Jose-CA-95131/2132599580_zpid/,Sold
"1508 Briartree Dr, San Jose, CA 95131",95131,775000.0,Sold 07/26/2018,1987,1307.0,CONDO,2725,496442.0,2,2.0,922,37.375603,-121.881718,https://www.zillow.com/homedetails/1508-Briartree-Dr-San-Jose-CA-95131/19560826_zpid/,Sold
"1508 Briartree Dr, San Jose, CA 95131",95131,775000.0,Sold 07/26/2018,1987,1307.0,CONDO,2725,496442.0,2,2.0,922,37.375603,-121.881718,https://www.zillow.com/homedetails/1508-Briartree-Dr-San-Jose-CA-95131/19560826_zpid/,Sold
"1361 Marcello #SJ95131, San Jose, CA 95131",95131,1030000.0,Sold 07/26/2018,-1,-1.0,SINGLE_FAMILY,3250,,0,,,37.390832,-121.890518,https://www.zillow.com/homedetails/1361-Marcello-SJ95131-San-Jose-CA-95131/2086128101_zpid/,Sold
"1525 Shumaker Way, San Jose, CA 95131",95131,480000.0,Sold 07/24/2018,1987,3500.0,SINGLE_FAMILY,2835,466012.0,2,2.0,849,37.39068,-121.875015,https://www.zillow.com/homedetails/1525-Shumaker-Way-San-Jose-CA-95131/19565123_zpid/,Sold
"1526 New Bedford Ct, San Jose, CA 95131",95131,1280000.0,Sold 07/17/2018,1988,7383.0,SINGLE_FAMILY,3750,428013.0,4,3.0,1822,37.384076,-121.88139,https://www.zillow.com/homedetails/1526-New-Bedford-Ct-San-Jose-CA-95131/19566739_zpid/,Sold
"1833 Sterling Lndg, San Jose, CA 95131",95131,1050000.0,Sold 07/16/2018,1994,823.0,TOWNHOUSE,3200,509292.0,2,3.0,1181,37.385608,-121.895651,https://www.zillow.com/homedetails/1833-Sterling-Lndg-San-Jose-CA-95131/19562964_zpid/,Sold
"1700 Fan St, San Jose, CA 95131",95131,1230000.0,Sold 07/13/2018,1989,2914.0,TOWNHOUSE,3895,387549.0,4,3.0,2009,37.374546,-121.876393,https://www.zillow.com/homedetails/1700-Fan-St-San-Jose-CA-95131/19561013_zpid/,Sold
"2496 Autumnvale Ave, San Jose, CA 95131",95131,1210000.0,Sold 07/13/2018,2008,1670.0,TOWNHOUSE,3590,575938.0,3,4.0,1771,37.404114,-121.884907,https://www.zillow.com/homedetails/2496-Autumnvale-Ave-San-Jose-CA-95131/89473461_zpid/,Sold
"2495 Jubilee Ln, San Jose, CA 95131",95131,530000.0,Sold 07/12/2018,1990,1771.0,CONDO,2535,410958.0,1,1.0,645,37.402565,-121.884885,https://www.zillow.com/homedetails/2495-Jubilee-Ln-San-Jose-CA-95131/19563406_zpid/,Sold
"1575 Four Oaks Cir, San Jose, CA 95131",95131,465000.0,Sold 07/12/2018,1986,1307.0,CONDO,2300,157156.0,1,1.0,676,37.390633,-121.871887,https://www.zillow.com/homedetails/1575-Four-Oaks-Cir-San-Jose-CA-95131/19564820_zpid/,Sold
"2162 Klassen Way, San Jose, CA 95131",95131,990000.0,Sold 07/11/2018,2009,1080.0,CONDO,3050,481004.0,2,3.0,1080,37.393527,-121.903615,https://www.zillow.com/homedetails/2162-Klassen-Way-San-Jose-CA-95131/89473465_zpid/,Sold
"1628 Valley Crest Dr, San Jose, CA 95131",95131,682500.0,Sold 07/11/2018,1987,3680.0,SINGLE_FAMILY,3300,274673.0,3,3.0,1491,37.375176,-121.879026,https://www.zillow.com/homedetails/1628-Valley-Crest-Dr-San-Jose-CA-95131/19560895_zpid/,Sold
"1552 Shore Dr, San Jose, CA 95131",95131,1336500.0,Sold 07/10/2018,2014,1742.0,SINGLE_FAMILY,3750,770117.0,3,3.0,1695,37.372547,-121.880599,https://www.zillow.com/homedetails/1552-Shore-Dr-San-Jose-CA-95131/122247911_zpid/,Sold
"1811 Wintersong Ct, San Jose, CA 95131",95131,1358000.0,Sold 07/10/2018,1975,5932.0,SINGLE_FAMILY,4000,504602.0,5,3.0,2422,37.376807,-121.871422,https://www.zillow.com/homedetails/1811-Wintersong-Ct-San-Jose-CA-95131/19566322_zpid/,Sold
"1361 Marcello Dr, San Jose, CA 95131",95131,1030000.0,Sold 07/10/2018,2010,1226.0,CONDO,3295,614103.0,2,3.0,1519,37.390832,-121.890517,https://www.zillow.com/homedetails/1361-Marcello-Dr-San-Jose-CA-95131/94699164_zpid/,Sold
"1311 Starglo Pl, San Jose, CA 95131",95131,1245000.0,Sold 07/06/2018,1993,884.0,TOWNHOUSE,3550,871854.0,3,2.5,1684,37.386982,-121.894488,https://www.zillow.com/homedetails/1311-Starglo-Pl-San-Jose-CA-95131/19563605_zpid/,Sold
"2151 Oakland Rd SPC 543, San Jose, CA 95131",95131,280000.0,Sold 07/05/2018,2001,-1.0,MANUFACTURED,3700,,4,2.0,1706,37.40036,-121.906739,https://www.zillow.com/homedetails/2151-Oakland-Rd-SPC-543-San-Jose-CA-95131/2089160155_zpid/,Sold
"1953 Tia Pl, San Jose, CA 95131",95131,930000.0,Sold 07/05/2018,1971,1572.0,TOWNHOUSE,3200,312398.0,4,1.5,1320,37.379501,-121.870306,https://www.zillow.com/homedetails/1953-Tia-Pl-San-Jose-CA-95131/19566136_zpid/,Sold
"1398 Sajak Ave, San Jose, CA 95131",95131,1663000.0,Sold 07/05/2018,1989,4182.0,SINGLE_FAMILY,4650,918107.0,4,3.0,2530,37.383301,-121.886331,https://www.zillow.com/homedetails/1398-Sajak-Ave-San-Jose-CA-95131/19561500_zpid/,Sold
"1030 Goldenstar Pl, San Jose, CA 95131",95131,1370000.0,Sold 07/02/2018,2014,736.0,TOWNHOUSE,3850,858055.0,4,3.5,1872,37.379379,-121.896986,https://www.zillow.com/homedetails/1030-Goldenstar-Pl-San-Jose-CA-95131/124745251_zpid/,Sold
"1023 Abruzzo Ln UNIT 6, San Jose, CA 95131",95131,1126500.0,Sold 07/02/2018,-1,9819.0,CONDO,,1354691.0,0,,,37.3714,-121.8788,https://www.zillow.com/homedetails/1023-Abruzzo-Ln-UNIT-6-San-Jose-CA-95131/249022563_zpid/,Sold
"1026 Abruzzo Ln UNIT 4, San Jose, CA 95131",95131,1047894.0,Sold 06/29/2018,-1,-1.0,TOWNHOUSE,3500,,4,3.5,1707,37.3714,-121.8788,https://www.zillow.com/homedetails/1026-Abruzzo-Ln-UNIT-4-San-Jose-CA-95131/2089155770_zpid/,Sold
"1026 Abruzzo Ln UNIT 5, San Jose, CA 95131",95131,1151000.0,Sold 06/29/2018,-1,9819.0,CONDO,,1354691.0,0,,,37.3714,-121.8788,https://www.zillow.com/homedetails/1026-Abruzzo-Ln-UNIT-5-San-Jose-CA-95131/249022565_zpid/,Sold
"1517 Briartree Dr, San Jose, CA 95131",95131,800000.0,Sold 06/28/2018,1987,1200.0,CONDO,2750,212987.0,2,2.0,913,37.375514,-121.882297,https://www.zillow.com/homedetails/1517-Briartree-Dr-San-Jose-CA-95131/19560815_zpid/,Sold
"2151 Oakland Rd SPC 218, San Jose, CA 95131",95131,230000.0,Sold 06/28/2018,2008,-1.0,MANUFACTURED,3500,,3,2.0,1416,37.40036,-121.906739,https://www.zillow.com/homedetails/2151-Oakland-Rd-SPC-218-San-Jose-CA-95131/2089365058_zpid/,Sold
"1026 Abruzzo Ln UNIT 3, San Jose, CA 95131",95131,889972.0,Sold 06/27/2018,-1,-1.0,TOWNHOUSE,3500,,2,2.0,1370,37.3723,-121.8803,https://www.zillow.com/homedetails/1026-Abruzzo-Ln-UNIT-3-San-Jose-CA-95131/2088329531_zpid/,Sold
"1643 Valley Crest Dr, San Jose, CA 95131",95131,1395000.0,Sold 06/27/2018,1987,3484.0,SINGLE_FAMILY,3850,399397.0,4,2.5,1828,37.375646,-121.879061,https://www.zillow.com/homedetails/1643-Valley-Crest-Dr-San-Jose-CA-95131/19560703_zpid/,Sold
"2284 Fallingtree Dr, San Jose, CA 95131",95131,1225000.0,Sold 06/26/2018,1973,5938.0,SINGLE_FAMILY,3600,472907.0,4,2.0,1234,37.396504,-121.882508,https://www.zillow.com/homedetails/2284-Fallingtree-Dr-San-Jose-CA-95131/19562291_zpid/,Sold
"1968 Bright Willow Cir, San Jose, CA 95131",95131,1520000.0,Sold 06/26/2018,2005,3715.0,SINGLE_FAMILY,4200,803552.0,5,4.0,2045,37.391832,-121.902008,https://www.zillow.com/homedetails/1968-Bright-Willow-Cir-San-Jose-CA-95131/64633819_zpid/,Sold
"1609 Mission Springs Cir, San Jose, CA 95131",95131,1500000.0,Sold 06/26/2018,1989,3500.0,SINGLE_FAMILY,4200,550878.0,4,3.0,1768,37.383754,-121.887351,https://www.zillow.com/homedetails/1609-Mission-Springs-Cir-San-Jose-CA-95131/19561694_zpid/,Sold
"1589 Fairway Green Cir, San Jose, CA 95131",95131,990000.0,Sold 06/26/2018,1988,1742.0,TOWNHOUSE,3104,660568.0,2,2.0,1098,37.378823,-121.884275,https://www.zillow.com/homedetails/1589-Fairway-Green-Cir-San-Jose-CA-95131/19561190_zpid/,Sold
"1792 Camino Leonor, San Jose, CA 95131",95131,925000.0,Sold 06/25/2018,2006,1422.0,APARTMENT,3200,463636.0,2,2.0,1422,37.390135,-121.888886,https://www.zillow.com/homedetails/1792-Camino-Leonor-San-Jose-CA-95131/72691638_zpid/,Sold
"1548 Prosperity Ct, San Jose, CA 95131",95131,1150000.0,Sold 06/22/2018,1994,3402.0,SINGLE_FAMILY,3495,351168.0,3,3.0,1265,37.387056,-121.880003,https://www.zillow.com/homedetails/1548-Prosperity-Ct-San-Jose-CA-95131/19565629_zpid/,Sold
"1121 Homer Cmn, San Jose, CA 95131",95131,1190000.0,Video Walkthrough,1996,888.0,CONDO,3500,830222.0,3,3.0,1651,37.385033,-121.897028,https://www.zillow.com/homedetails/1121-Homer-Cmn-San-Jose-CA-95131/19563127_zpid/,Sold
"1419 Flickinger Ave, San Jose, CA 95131",95131,1170000.0,Sold 06/22/2018,1971,6000.0,SINGLE_FAMILY,3170,77110.0,3,2.0,1770,37.385864,-121.874167,https://www.zillow.com/homedetails/1419-Flickinger-Ave-San-Jose-CA-95131/19565485_zpid/,Sold
"1717 Winston St, San Jose, CA 95131",95131,1100000.0,Sold 06/22/2018,1989,3049.0,CONDO,3500,702440.0,3,2.5,1666,37.374328,-121.875239,https://www.zillow.com/homedetails/1717-Winston-St-San-Jose-CA-95131/19561049_zpid/,Sold
"1211 Tea Rose Cir, San Jose, CA 95131",95131,1080000.0,Sold 06/20/2018,1994,653.0,SINGLE_FAMILY,3380,703805.0,2,2.5,1506,37.387204,-121.895376,https://www.zillow.com/homedetails/1211-Tea-Rose-Cir-San-Jose-CA-95131/19563577_zpid/,Sold
"1818 Camino Leonor, San Jose, CA 95131",95131,1130000.0,Sold 06/15/2018,2007,1306.0,CONDO,3500,673026.0,3,2.0,1546,37.390708,-121.889449,https://www.zillow.com/homedetails/1818-Camino-Leonor-San-Jose-CA-95131/82957679_zpid/,Sold
"1418 Rocklin Ct, San Jose, CA 95131",95131,811000.0,Sold 06/13/2018,1984,436.0,CONDO,2635,289144.0,2,1.0,896,37.381815,-121.882862,https://www.zillow.com/homedetails/1418-Rocklin-Ct-San-Jose-CA-95131/19560207_zpid/,Sold
"1088 Foxglove Pl, San Jose, CA 95131",95131,1321000.0,Sold 06/12/2018,2015,644.0,TOWNHOUSE,3800,797236.0,3,3.5,1718,37.379573,-121.896039,https://www.zillow.com/homedetails/1088-Foxglove-Pl-San-Jose-CA-95131/166731530_zpid/,Sold
"1297 Littleton Dr, San Jose, CA 95131",95131,1316250.0,Sold 06/12/2018,1990,4639.0,SINGLE_FAMILY,4000,808456.0,4,3.0,1918,37.371858,-121.886009,https://www.zillow.com/homedetails/1297-Littleton-Dr-San-Jose-CA-95131/19562113_zpid/,Sold
"1251 Pecan Ct, San Jose, CA 95131",95131,958000.0,Sold 06/11/2018,1977,2178.0,CONDO,3000,277076.0,3,2.0,1040,37.381201,-121.87111,https://www.zillow.com/homedetails/1251-Pecan-Ct-San-Jose-CA-95131/19566058_zpid/,Sold
"2151 Oakland Rd SPC 7, San Jose, CA 95131",95131,185000.0,Sold 06/11/2018,1975,-1.0,MANUFACTURED,3500,,3,2.0,1440,37.40036,-121.906739,https://www.zillow.com/homedetails/2151-Oakland-Rd-SPC-7-San-Jose-CA-95131/2090374517_zpid/,Sold
"1587 Timber Creek Dr, San Jose, CA 95131",95131,1500000.0,Sold 06/11/2018,1986,2613.0,SINGLE_FAMILY,4000,871854.0,3,3.0,1513,37.392579,-121.876555,https://www.zillow.com/homedetails/1587-Timber-Creek-Dr-San-Jose-CA-95131/19565063_zpid/,Sold
"1023 Abruzzo #2, San Jose, CA 95131",95131,860097.0,Sold 06/10/2018,-1,-1.0,CONDO,3295,,2,2.0,1171,37.3866,-121.8932,https://www.zillow.com/homedetails/1023-Abruzzo-2-San-Jose-CA-95131/2086841660_zpid/,Sold
"1518 Bellemeade St, San Jose, CA 95131",95131,1640000.0,Sold 06/08/2018,1998,4578.0,SINGLE_FAMILY,4300,649612.0,5,3.0,2410,37.374035,-121.881205,https://www.zillow.com/homedetails/1518-Bellemeade-St-San-Jose-CA-95131/19561851_zpid/,Sold
"2051 Oakland Rd, San Jose, CA 95131",95131,1200000.0,Sold 06/08/2018,2007,675.0,TOWNHOUSE,3600,716833.0,4,4.0,1573,37.394172,-121.902039,https://www.zillow.com/homedetails/2051-Oakland-Rd-San-Jose-CA-95131/82956207_zpid/,Sold
"1851 Bristol Bay Cmn, San Jose, CA 95131",95131,1240000.0,Sold 06/08/2018,1994,888.0,TOWNHOUSE,3495,549476.0,3,3.0,1651,37.385439,-121.895379,https://www.zillow.com/homedetails/1851-Bristol-Bay-Cmn-San-Jose-CA-95131/19562966_zpid/,Sold
"1033 Bellante Ln UNIT 3, San Jose, CA 95131",95131,1350000.0,Sold 06/07/2018,-1,10728.0,CONDO,,1480102.0,0,,,37.3714,-121.8797,https://www.zillow.com/homedetails/1033-Bellante-Ln-UNIT-3-San-Jose-CA-95131/248567227_zpid/,Sold
"2191 Beech Cir, San Jose, CA 95131",95131,980000.0,Sold 07/25/2017,2008,1670.0,CONDO,3690,604356.0,3,3.5,1771,37.403581,-121.884473,https://www.zillow.com/homedetails/2191-Beech-Cir-San-Jose-CA-95131/89473975_zpid/,Sold
"2193 Beech Cir, San Jose, CA 95131",95131,895000.0,Sold 07/25/2017,2008,1668.0,TOWNHOUSE,3499,895000.0,3,3.0,1536,37.403612,-121.884434,https://www.zillow.com/homedetails/2193-Beech-Cir-San-Jose-CA-95131/89473740_zpid/,Sold
"2256 Emerald Hills Cir, San Jose, CA 95131",95131,932000.0,Sold 07/25/2017,1985,4321.0,SINGLE_FAMILY,3495,931750.0,3,3.0,1566,37.390623,-121.87033,https://www.zillow.com/homedetails/2256-Emerald-Hills-Cir-San-Jose-CA-95131/19564768_zpid/,Sold
"1339 Marcello Dr, San Jose, CA 95131",95131,828000.0,Sold 07/21/2017,2007,1224.0,TOWNHOUSE,3250,828000.0,2,2.5,1541,37.390759,-121.890614,https://www.zillow.com/homedetails/1339-Marcello-Dr-San-Jose-CA-95131/94700647_zpid/,Sold
"2011 Quadros Ln, San Jose, CA 95131",95131,640000.0,Sold 07/19/2017,1971,1960.0,TOWNHOUSE,3000,640000.0,3,1.0,994,37.380048,-121.869678,https://www.zillow.com/homedetails/2011-Quadros-Ln-San-Jose-CA-95131/19566146_zpid/,Sold
"2118 Sierra Rd, San Jose, CA 95131",95131,1425000.0,Sold 07/19/2017,1969,7500.0,MULTI_FAMILY,3100,1425000.0,0,,2614,37.387217,-121.871166,https://www.zillow.com/homedetails/2118-Sierra-Rd-San-Jose-CA-95131/153347445_zpid/,Sold
"1336 Meadow Ridge Cir, San Jose, CA 95131",95131,595000.0,Sold 07/18/2017,1987,1045.0,SINGLE_FAMILY,2750,594750.0,2,2.0,896,37.38167,-121.884934,https://www.zillow.com/homedetails/1336-Meadow-Ridge-Cir-San-Jose-CA-95131/19561135_zpid/,Sold
"1022 Bramblewood Ln, San Jose, CA 95131",95131,1380000.0,Sold 07/18/2017,2005,3209.0,SINGLE_FAMILY,4200,1380000.0,5,4.0,2045,37.390759,-121.90326,https://www.zillow.com/homedetails/1022-Bramblewood-Ln-San-Jose-CA-95131/64584303_zpid/,Sold
"1302 Pietro Dr, San Jose, CA 95131",95131,1076000.0,Sold 07/18/2017,1986,3920.0,SINGLE_FAMILY,3600,1076000.0,3,2.5,1662,37.379081,-121.879613,https://www.zillow.com/homedetails/1302-Pietro-Dr-San-Jose-CA-95131/19560581_zpid/,Sold
"1748 Flickinger Ave, San Jose, CA 95131",95131,890000.0,Sold 07/17/2017,1973,5009.0,SINGLE_FAMILY,3200,890000.0,3,2.0,1041,37.393582,-121.881645,https://www.zillow.com/homedetails/1748-Flickinger-Ave-San-Jose-CA-95131/19562764_zpid/,Sold
"1078 Goldenstar Pl, San Jose, CA 95131",95131,950000.0,Sold 07/17/2017,2015,1268.0,CONDO,3495,950000.0,2,3.0,1622,37.379385,-121.896232,https://www.zillow.com/homedetails/1078-Goldenstar-Pl-San-Jose-CA-95131/166731815_zpid/,Sold
"1336 Mich Bluff Dr, San Jose, CA 95131",95131,878000.0,Sold 07/14/2017,1970,6000.0,SINGLE_FAMILY,3175,893000.0,4,2.0,1380,37.384829,-121.870924,https://www.zillow.com/homedetails/1336-Mich-Bluff-Dr-San-Jose-CA-95131/19564517_zpid/,Sold
"1371 Flickinger Ave, San Jose, CA 95131",95131,920000.0,Sold 07/13/2017,1971,5998.0,SINGLE_FAMILY,3550,920000.0,4,2.0,1448,37.384824,-121.873058,https://www.zillow.com/homedetails/1371-Flickinger-Ave-San-Jose-CA-95131/19565997_zpid/,Sold
"1319 Muench Ct, San Jose, CA 95131",95131,1098000.0,Sold 07/13/2017,1986,3310.0,SINGLE_FAMILY,3600,1119960.0,3,3.0,1486,37.378462,-121.880784,https://www.zillow.com/homedetails/1319-Muench-Ct-San-Jose-CA-95131/19560605_zpid/,Sold
"2043 Oakland Rd, San Jose, CA 95131",95131,825000.0,Sold 07/07/2017,2007,2025.0,CONDO,3180,825000.0,2,2.5,1213,37.394052,-121.902016,https://www.zillow.com/homedetails/2043-Oakland-Rd-San-Jose-CA-95131/82958731_zpid/,Sold
"1533 Goody Ln, San Jose, CA 95131",95131,925000.0,Sold 07/07/2017,1987,2613.0,SINGLE_FAMILY,3500,943500.0,3,3.0,1493,37.382671,-121.888367,https://www.zillow.com/homedetails/1533-Goody-Ln-San-Jose-CA-95131/19560465_zpid/,Sold
"2109 Oakland Rd, San Jose, CA 95131",95131,830000.0,Sold 07/06/2017,-1,-1.0,CONDO,3400,830000.0,,,,37.395421,-121.902292,https://www.zillow.com/homedetails/2109-Oakland-Rd-San-Jose-CA-95131/94696814_zpid/,Sold
"1412 Rocklin Ct, San Jose, CA 95131",95131,642000.0,Sold 07/06/2017,1984,435.0,APARTMENT,2896,642000.0,2,2.0,988,37.381668,-121.882918,https://www.zillow.com/homedetails/1412-Rocklin-Ct-San-Jose-CA-95131/19560213_zpid/,Sold
"2563 Flickinger Ave, San Jose, CA 95131",95131,1360000.0,Sold 07/05/2017,1997,4552.0,SINGLE_FAMILY,4300,1360000.0,5,3.0,2231,37.40119,-121.881151,https://www.zillow.com/homedetails/2563-Flickinger-Ave-San-Jose-CA-95131/19563882_zpid/,Sold
"1931 Bright Willow Cir, San Jose, CA 95131",95131,1100000.0,Sold 07/03/2017,2005,3700.0,SINGLE_FAMILY,3900,1100000.0,3,3.0,1828,37.391091,-121.902034,https://www.zillow.com/homedetails/1931-Bright-Willow-Cir-San-Jose-CA-95131/64431330_zpid/,Sold
"1960 N Star Ct, San Jose, CA 95131",95131,985000.0,Sold 06/30/2017,1984,3149.0,SINGLE_FAMILY,3350,1004700.0,3,3.0,1464,37.401149,-121.884177,https://www.zillow.com/homedetails/1960-N-Star-Ct-San-Jose-CA-95131/19563333_zpid/,Sold
"1077 Rock Ave, San Jose, CA 95131",95131,840000.0,Sold 06/30/2017,2007,2047.0,TOWNHOUSE,3150,856800.0,2,2.5,1213,37.3934,-121.902771,https://www.zillow.com/homedetails/1077-Rock-Ave-San-Jose-CA-95131/82949929_zpid/,Sold
"1584 Thorncrest Dr, San Jose, CA 95131",95131,590000.0,Sold 06/30/2017,1987,1200.0,CONDO,2702,601800.0,2,2.0,922,37.37639,-121.88049,https://www.zillow.com/homedetails/1584-Thorncrest-Dr-San-Jose-CA-95131/19560769_zpid/,Sold
"1405 Marcello Dr, San Jose, CA 95131",95131,838000.0,Sold 06/30/2017,2007,1306.0,CONDO,3300,854760.0,2,2.5,1519,37.391071,-121.890199,https://www.zillow.com/homedetails/1405-Marcello-Dr-San-Jose-CA-95131/82960933_zpid/,Sold
"1279 Marcello Dr, San Jose, CA 95131",95131,843000.0,Sold 06/30/2017,2006,1742.0,CONDO,3250,859860.0,2,2.5,1540,37.390451,-121.890739,https://www.zillow.com/homedetails/1279-Marcello-Dr-San-Jose-CA-95131/79846517_zpid/,Sold
"1233 Avenida Benito, San Jose, CA 95131",95131,880000.0,Sold 06/30/2017,2006,1481.0,CONDO,3390,897600.0,2,2.5,1481,37.389178,-121.892416,https://www.zillow.com/homedetails/1233-Avenida-Benito-San-Jose-CA-95131/79846257_zpid/,Sold
"2125 Oakland Rd, San Jose, CA 95131",95131,770000.0,Sold 06/30/2017,2009,2265.0,TOWNHOUSE,3150,785400.0,2,2.5,1213,37.395932,-121.902381,https://www.zillow.com/homedetails/2125-Oakland-Rd-San-Jose-CA-95131/94698728_zpid/,Sold
"1293 Tea Rose Cir, San Jose, CA 95131",95131,696000.0,Sold 06/30/2017,1993,435.0,CONDO,3100,709920.0,2,2.0,1157,37.387332,-121.893109,https://www.zillow.com/homedetails/1293-Tea-Rose-Cir-San-Jose-CA-95131/19563688_zpid/,Sold
"1269 Hong Kong Dr, San Jose, CA 95131",95131,979000.0,Sold 06/30/2017,1992,2570.0,TOWNHOUSE,3500,998580.0,3,2.5,1666,37.382993,-121.890271,https://www.zillow.com/homedetails/1269-Hong-Kong-Dr-San-Jose-CA-95131/19561986_zpid/,Sold
"1119 Avenida Benito, San Jose, CA 95131",95131,1040000.0,Sold 06/29/2017,2007,682.0,TOWNHOUSE,3900,1060800.0,4,4.0,2041,37.388541,-121.893127,https://www.zillow.com/homedetails/1119-Avenida-Benito-San-Jose-CA-95131/79845118_zpid/,Sold
"1212 Tea Rose Cir, San Jose, CA 95131",95131,720000.0,Sold 06/29/2017,1993,2299.0,CONDO,3100,734400.0,2,2.0,1157,37.386844,-121.894743,https://www.zillow.com/homedetails/1212-Tea-Rose-Cir-San-Jose-CA-95131/19563598_zpid/,Sold
"1895 Sheri Ann Cir, San Jose, CA 95131",95131,915000.0,Sold 06/27/2017,1993,1176.0,TOWNHOUSE,3500,933300.0,3,2.5,1790,37.389219,-121.894927,https://www.zillow.com/homedetails/1895-Sheri-Ann-Cir-San-Jose-CA-95131/19562889_zpid/,Sold
"1875 Sheri Ann Cir, San Jose, CA 95131",95131,755000.0,Sold 06/27/2017,1993,436.0,CONDO,2900,770100.0,2,2.0,1006,37.389201,-121.895484,https://www.zillow.com/homedetails/1875-Sheri-Ann-Cir-San-Jose-CA-95131/19562900_zpid/,Sold
"1386 Meadow Ridge Cir, San Jose, CA 95131",95131,668000.0,Sold 06/26/2017,1987,1125.0,APARTMENT,2976,681360.0,2,2.0,1093,37.382035,-121.884225,https://www.zillow.com/homedetails/1386-Meadow-Ridge-Cir-San-Jose-CA-95131/19561094_zpid/,Sold
"2151 Oakland Rd SPC 560, San Jose, CA 95131",95131,235000.0,Sold 06/26/2017,2016,-1.0,MANUFACTURED,3695,,4,2.0,1680,37.40036,-121.906739,https://www.zillow.com/homedetails/2151-Oakland-Rd-SPC-560-San-Jose-CA-95131/2095206084_zpid/,Sold
"1815 Wintersong Ct, San Jose, CA 95131",95131,1035000.0,Sold 06/26/2017,1975,7200.0,SINGLE_FAMILY,3600,1055700.0,3,2.0,1698,37.376936,-121.871298,https://www.zillow.com/homedetails/1815-Wintersong-Ct-San-Jose-CA-95131/19566321_zpid/,Sold
"1376 Tanaka Dr, San Jose, CA 95131",95131,1458000.0,Sold 06/26/2017,1989,4356.0,SINGLE_FAMILY,4650,1487160.0,4,3.0,2530,37.382784,-121.885881,https://www.zillow.com/homedetails/1376-Tanaka-Dr-San-Jose-CA-95131/19561520_zpid/,Sold
"1034 Banyan Ct, San Jose, CA 95131",95131,1250000.0,Sold 06/23/2017,2008,3568.0,SINGLE_FAMILY,4205,1275000.0,4,3.0,2150,37.39168,-121.903575,https://www.zillow.com/homedetails/1034-Banyan-Ct-San-Jose-CA-95131/82962888_zpid/,Sold
"1879 Seville Way, San Jose, CA 95131",95131,761000.0,Sold 06/23/2017,1971,5500.0,SINGLE_FAMILY,2995,776220.0,2,1.0,846,37.382243,-121.873564,https://www.zillow.com/homedetails/1879-Seville-Way-San-Jose-CA-95131/19565927_zpid/,Sold
"1764 Ringwood Ave, San Jose, CA 95131",95131,1000000.0,Sold 06/23/2017,2006,2178.0,TOWNHOUSE,3979,1020000.0,4,3.5,2170,37.388543,-121.893446,https://www.zillow.com/homedetails/1764-Ringwood-Ave-San-Jose-CA-95131/79842404_zpid/,Sold
"2092 Concourse #29, San Jose, CA 95131",95131,345000.0,Sold 05/23/2018,-1,-1.0,SINGLE_FAMILY,3170,,0,,1500,37.39643,-121.889108,https://www.zillow.com/homedetails/2092-Concourse-29-San-Jose-CA-95131/2089386728_zpid/,Sold
"1294 Royal Crest Dr, San Jose, CA 95131",95131,1120000.0,Sold 05/22/2018,1985,3611.0,SINGLE_FAMILY,3600,636435.0,3,2.5,1432,37.377902,-121.87998,https://www.zillow.com/homedetails/1294-Royal-Crest-Dr-San-Jose-CA-95131/19560353_zpid/,Sold
"2151 Oakland Rd SPC 178, San Jose, CA 95131",95131,240000.0,Sold 05/22/2018,1989,-1.0,MANUFACTURED,3500,,3,2.0,1440,37.40036,-121.906739,https://www.zillow.com/homedetails/2151-Oakland-Rd-SPC-178-San-Jose-CA-95131/2105684529_zpid/,Sold
"2151 Oakland Rd SPC 174, San Jose, CA 95131",95131,240000.0,Sold 05/22/2018,1971,-1.0,MANUFACTURED,2700,,2,1.0,800,37.40036,-121.906739,https://www.zillow.com/homedetails/2151-Oakland-Rd-SPC-174-San-Jose-CA-95131/2099931306_zpid/,Sold
"1294 Tea Rose Cir, San Jose, CA 95131",95131,950000.0,Sold 05/18/2018,1993,435.0,CONDO,3150,447593.0,2,2.0,1157,37.38717,-121.893427,https://www.zillow.com/homedetails/1294-Tea-Rose-Cir-San-Jose-CA-95131/19563670_zpid/,Sold
"2117 Oakland Rd, San Jose, CA 95131",95131,1110000.0,Sold 05/18/2018,2009,2276.0,CONDO,3200,519955.0,2,3.0,1213,37.3956,-121.902296,https://www.zillow.com/homedetails/2117-Oakland-Rd-San-Jose-CA-95131/94702506_zpid/,Sold
"1454 Four Oaks Cir, San Jose, CA 95131",95131,455000.0,Sold 05/18/2018,1986,1306.0,CONDO,2300,358938.0,1,1.0,676,37.391271,-121.87135,https://www.zillow.com/homedetails/1454-Four-Oaks-Cir-San-Jose-CA-95131/19564852_zpid/,Sold
"1022 Banyan Ct, San Jose, CA 95131",95131,1560000.0,Sold 05/17/2018,2007,3567.0,SINGLE_FAMILY,4200,972186.0,4,2.5,2150,37.391554,-121.903873,https://www.zillow.com/homedetails/1022-Banyan-Ct-San-Jose-CA-95131/82962348_zpid/,Sold
"1216 Royal Crest Dr, San Jose, CA 95131",95131,1163000.0,Sold 05/17/2018,1985,3920.0,SINGLE_FAMILY,3700,1000000.0,4,3.0,1599,37.37743,-121.87793,https://www.zillow.com/homedetails/1216-Royal-Crest-Dr-San-Jose-CA-95131/112098806_zpid/,Sold
"2198 Beech Cir, San Jose, CA 95131",95131,1205000.0,Sold 05/15/2018,2008,1670.0,CONDO,3495,505625.0,3,3.0,1536,37.403854,-121.88456,https://www.zillow.com/homedetails/2198-Beech-Cir-San-Jose-CA-95131/89476331_zpid/,Sold
"1037 Abruzzo Ln UNIT 6, San Jose, CA 95131",95131,969000.0,Sold 05/14/2018,-1,9698.0,CONDO,,1337997.0,0,,,37.3714,-121.8788,https://www.zillow.com/homedetails/1037-Abruzzo-Ln-UNIT-6-San-Jose-CA-95131/245822217_zpid/,Sold
"1736 Parkview Green Cir, San Jose, CA 95131",95131,985000.0,Sold 05/11/2018,1988,1740.0,CONDO,3150,258702.0,2,2.0,1228,37.379154,-121.882955,https://www.zillow.com/homedetails/1736-Parkview-Green-Cir-San-Jose-CA-95131/19561590_zpid/,Sold
"1052 Bigleaf Pl UNIT 107, San Jose, CA 95131",95131,1330000.0,Sold 05/11/2018,2015,1632.0,CONDO,3795,791739.0,3,3.0,1867,37.380414,-121.897617,https://www.zillow.com/homedetails/1052-Bigleaf-Pl-UNIT-107-San-Jose-CA-95131/166731016_zpid/,Sold
"1629 Thorncrest Dr, San Jose, CA 95131",95131,820000.0,Sold 05/11/2018,1987,1197.0,SINGLE_FAMILY,2750,546463.0,2,2.0,922,37.376819,-121.880317,https://www.zillow.com/homedetails/1629-Thorncrest-Dr-San-Jose-CA-95131/19560791_zpid/,Sold
"1296 Notting Hill Dr, San Jose, CA 95131",95131,25000.0,Sold 05/09/2018,1990,3800.0,SINGLE_FAMILY,3800,424852.0,4,2.5,1578,37.37171,-121.886226,https://www.zillow.com/homedetails/1296-Notting-Hill-Dr-San-Jose-CA-95131/19562136_zpid/,Sold
"2151 Oakland Rd SPC 229, San Jose, CA 95131",95131,189900.0,Sold 05/08/2018,1972,-1.0,MANUFACTURED,3525,,4,2.0,1440,37.40036,-121.906739,https://www.zillow.com/homedetails/2151-Oakland-Rd-SPC-229-San-Jose-CA-95131/2090563767_zpid/,Sold
"2151 Oakland Rd SPC 231, San Jose, CA 95131",95131,172000.0,Sold 05/08/2018,1972,1441.0,MANUFACTURED,3400,,3,2.0,1440,37.40036,-121.906739,https://www.zillow.com/homedetails/2151-Oakland-Rd-SPC-231-San-Jose-CA-95131/2102099432_zpid/,Sold
"2381 Trade Zone Blvd, San Jose, CA 95131",95131,1220000.0,Sold 05/04/2018,2008,740.0,TOWNHOUSE,3495,539998.0,3,3.0,1536,37.403144,-121.885401,https://www.zillow.com/homedetails/2381-Trade-Zone-Blvd-San-Jose-CA-95131/89475043_zpid/,Sold
"1254 Formosa Dr, San Jose, CA 95131",95131,1450000.0,Sold 05/02/2018,1993,3080.0,TOWNHOUSE,4000,553332.0,4,3.0,2009,37.381806,-121.888726,https://www.zillow.com/homedetails/1254-Formosa-Dr-San-Jose-CA-95131/19562022_zpid/,Sold
"1035 Onofrio Ln UNIT 5, San Jose, CA 95131",95131,850000.0,Sold 05/01/2018,-1,-1.0,HOME_TYPE_UNKNOWN,3600,,,,,37.3723,-121.8803,https://www.zillow.com/homedetails/1035-Onofrio-Ln-UNIT-5-San-Jose-CA-95131/2089941521_zpid/,Sold
"1035 Giacomo Ln, San Jose, CA 95131",95131,1032489.0,Sold 04/30/2018,-1,-1.0,TOWNHOUSE,3815,,4,4.0,1847,37.372389,-121.878327,https://www.zillow.com/homedetails/1035-Giacomo-Ln-San-Jose-CA-95131/2089318479_zpid/,Sold
"1353 Pebble Ct, San Jose, CA 95131",95131,825000.0,Sold 04/30/2018,1987,1255.0,CONDO,3075,394265.0,2,2.0,1203,37.381197,-121.885213,https://www.zillow.com/homedetails/1353-Pebble-Ct-San-Jose-CA-95131/19561180_zpid/,Sold
"2592 Minuet Dr, San Jose, CA 95131",95131,1560000.0,Sold 04/28/2018,2015,4033.0,SINGLE_FAMILY,4250,1017511.0,4,2.5,2120,37.400918,-121.879306,https://www.zillow.com/homedetails/2592-Minuet-Dr-San-Jose-CA-95131/166728472_zpid/,Sold
